<?xml version="1.0" encoding="utf-8" ?>
<gpx xmlns="http://www.topografix.com/GPX/1/1" creator="http://furkot.com/" version="1.1" xmlns:xsi="http://www.w3.org/2001/XMLSchema-instance" xmlns:gpxx="http://www.garmin.com/xmlschemas/GpxExtensions/v3" xmlns:trp="http://www.garmin.com/xmlschemas/TripExtensions/v1" xmlns:tmd="http://www.garmin.com/xmlschemas/TripMetaDataExtensions/v1" xmlns:vptm="http://www.garmin.com/xmlschemas/ViaPointTransportationModeExtensions/v1" xsi:schemaLocation="http://www.topografix.com/GPX/1/1 http://www.topografix.com/GPX/1/1/gpx.xsd http://www.garmin.com/xmlschemas/GpxExtensions/v3 http://www8.garmin.com/xmlschemas/GpxExtensionsv3.xsd http://www.garmin.com/xmlschemas/TripExtensions/v1 http://www.garmin.com/xmlschemas/TripExtensionsv1.xsd http://www.garmin.com/xmlschemas/TripMetaDataExtensions/v1 http://www.garmin.com/xmlschemas/TripMetaDataExtensionsv1.xsd http://www.garmin.com/xmlschemas/ViaPointTransportationModeExtensions/v1 http://www.garmin.com/xmlschemas/ViaPointTransportationModeExtensionsv1.xsd">
  <metadata>
    <name>EV PT2025 - Day 3 | Allen County War Memorial Coliseum</name>
    <author>
      <name>Furkot - road trip planner</name>
      <email id="trips" domain="furkot.com"></email>
      <link href="https://trips.furkot.com">
        <text>Furkot</text>
      </link>
    </author>
  </metadata>
  <wpt lat="41.459288" lon="-88.079154">
    <time>2025-06-11T14:00:00.000Z</time>
    <name>Rt 66 Raceway - Gate 11</name>
    <sym>Flag, Blue</sym>
    <extensions>
      <gpxx:WaypointExtension>
        <gpxx:Address>
          <gpxx:StreetAddress>South Chicago Street</gpxx:StreetAddress>
          <gpxx:City>Jackson</gpxx:City>
          <gpxx:State>IL</gpxx:State>
          <gpxx:Country>United States</gpxx:Country>
        </gpxx:Address>
      </gpxx:WaypointExtension>
    </extensions>
  </wpt>
  <wpt lat="41.429942" lon="-88.078742">
    <time>2025-06-11T14:02:24.000Z</time>
    <name>Left on Manhattan/Arsenal Rd</name>
    <extensions>
      <gpxx:WaypointExtension>
        <gpxx:Address>
          <gpxx:StreetAddress>IL 53</gpxx:StreetAddress>
          <gpxx:City>Jackson</gpxx:City>
          <gpxx:State>IL</gpxx:State>
          <gpxx:Country>United States</gpxx:Country>
        </gpxx:Address>
      </gpxx:WaypointExtension>
    </extensions>
  </wpt>
  <wpt lat="41.431774" lon="-87.995772">
    <time>2025-06-11T15:07:22.000Z</time>
    <name>Turn right on US-52E/W North St</name>
    <extensions>
      <gpxx:WaypointExtension>
        <gpxx:Address>
          <gpxx:City>Manhattan</gpxx:City>
          <gpxx:State>IL</gpxx:State>
          <gpxx:Country>United States</gpxx:Country>
        </gpxx:Address>
      </gpxx:WaypointExtension>
    </extensions>
  </wpt>
  <wpt lat="41.352673" lon="-87.882172">
    <time>2025-06-11T16:19:48.000Z</time>
    <name>Right on US-45S/US-52E</name>
    <extensions>
      <gpxx:WaypointExtension>
        <gpxx:Address>
          <gpxx:StreetAddress>West Joliet Road</gpxx:StreetAddress>
          <gpxx:City>Peotone</gpxx:City>
          <gpxx:State>IL</gpxx:State>
          <gpxx:Country>United States</gpxx:Country>
        </gpxx:Address>
      </gpxx:WaypointExtension>
    </extensions>
  </wpt>
  <wpt lat="41.294670" lon="-87.879746">
    <time>2025-06-11T17:24:11.000Z</time>
    <name>Right on E 12000N Rd</name>
    <extensions>
      <gpxx:WaypointExtension>
        <gpxx:Address>
          <gpxx:City>Manteno</gpxx:City>
          <gpxx:State>IL</gpxx:State>
          <gpxx:Country>United States</gpxx:Country>
        </gpxx:Address>
      </gpxx:WaypointExtension>
    </extensions>
  </wpt>
  <wpt lat="41.298063" lon="-87.526717">
    <time>2025-06-11T18:44:11.000Z</time>
    <name>Right on N 18000E Rd / Stateline Rd</name>
    <extensions>
      <gpxx:WaypointExtension>
        <gpxx:Address>
          <gpxx:City>West Creek</gpxx:City>
          <gpxx:State>IN</gpxx:State>
          <gpxx:Country>United States</gpxx:Country>
        </gpxx:Address>
      </gpxx:WaypointExtension>
    </extensions>
  </wpt>
  <wpt lat="41.283008" lon="-87.526722">
    <time>2025-06-11T19:45:46.000Z</time>
    <name>Left onto 185th Ave</name>
    <extensions>
      <gpxx:WaypointExtension>
        <gpxx:Address>
          <gpxx:City>Yellowhead</gpxx:City>
          <gpxx:State>IL</gpxx:State>
          <gpxx:Country>United States</gpxx:Country>
        </gpxx:Address>
      </gpxx:WaypointExtension>
    </extensions>
  </wpt>
  <wpt lat="41.282714" lon="-87.468305">
    <time>2025-06-11T20:54:20.000Z</time>
    <name>Left on US-41N</name>
    <extensions>
      <gpxx:WaypointExtension>
        <gpxx:Address>
          <gpxx:City>West Creek</gpxx:City>
          <gpxx:State>IN</gpxx:State>
          <gpxx:Country>United States</gpxx:Country>
        </gpxx:Address>
      </gpxx:WaypointExtension>
    </extensions>
  </wpt>
  <wpt lat="41.289990" lon="-87.468231">
    <time>2025-06-11T21:55:18.000Z</time>
    <name>Right on West 181st Ave/IN-2</name>
    <extensions>
      <gpxx:WaypointExtension>
        <gpxx:Address>
          <gpxx:StreetAddress>Wicker Avenue</gpxx:StreetAddress>
          <gpxx:City>West Creek</gpxx:City>
          <gpxx:State>IN</gpxx:State>
          <gpxx:Country>United States</gpxx:Country>
        </gpxx:Address>
      </gpxx:WaypointExtension>
    </extensions>
  </wpt>
  <wpt lat="41.289282" lon="-87.199561">
    <time>2025-06-11T23:13:20.000Z</time>
    <name>Left on US-231 North</name>
    <extensions>
      <gpxx:WaypointExtension>
        <gpxx:Address>
          <gpxx:StreetAddress>West 1014 South</gpxx:StreetAddress>
          <gpxx:City>Boone</gpxx:City>
          <gpxx:State>IN</gpxx:State>
          <gpxx:Country>United States</gpxx:Country>
        </gpxx:Address>
      </gpxx:WaypointExtension>
    </extensions>
  </wpt>
  <wpt lat="41.318595" lon="-87.199965">
    <time>2025-06-12T00:16:03.000Z</time>
    <name>Right on E Sigler St/IN-8 East</name>
    <extensions>
      <gpxx:WaypointExtension>
        <gpxx:Address>
          <gpxx:City>Hebron</gpxx:City>
          <gpxx:State>IN</gpxx:State>
          <gpxx:Country>United States</gpxx:Country>
        </gpxx:Address>
      </gpxx:WaypointExtension>
    </extensions>
  </wpt>
  <wpt lat="41.317359" lon="-86.891440">
    <time>2025-06-12T01:34:51.000Z</time>
    <name>Left on US-421 North</name>
    <extensions>
      <gpxx:WaypointExtension>
        <gpxx:Address>
          <gpxx:StreetAddress>West Main Street</gpxx:StreetAddress>
          <gpxx:City>La Crosse</gpxx:City>
          <gpxx:State>IN</gpxx:State>
          <gpxx:Country>United States</gpxx:Country>
        </gpxx:Address>
      </gpxx:WaypointExtension>
    </extensions>
  </wpt>
  <wpt lat="41.433813" lon="-86.891216">
    <time>2025-06-12T02:44:17.000Z</time>
    <name>Right on Lincoln Highway / US-30E</name>
    <extensions>
      <gpxx:WaypointExtension>
        <gpxx:Address>
          <gpxx:StreetAddress>10011 West US Highway 30</gpxx:StreetAddress>
          <gpxx:City>Wanatah</gpxx:City>
          <gpxx:State>IN</gpxx:State>
          <gpxx:Country>United States</gpxx:Country>
        </gpxx:Address>
      </gpxx:WaypointExtension>
    </extensions>
  </wpt>
  <wpt lat="41.117719" lon="-85.181559">
    <time>2025-06-12T06:09:23.000Z</time>
    <name>Left on West Coliseum Blvd</name>
    <extensions>
      <gpxx:WaypointExtension>
        <gpxx:Address>
          <gpxx:StreetAddress>West Coliseum Boulevard</gpxx:StreetAddress>
          <gpxx:City>Fort Wayne</gpxx:City>
          <gpxx:State>IN</gpxx:State>
          <gpxx:Country>United States</gpxx:Country>
        </gpxx:Address>
      </gpxx:WaypointExtension>
    </extensions>
  </wpt>
  <wpt lat="41.115170" lon="-85.122756">
    <time>2025-06-12T07:15:20.000Z</time>
    <name>Turn right into Gate 1 - Allen Co War Mem Coliseum</name>
    <sym>Flag, Blue</sym>
    <extensions>
      <gpxx:WaypointExtension>
        <gpxx:Address>
          <gpxx:StreetAddress>4000 Parnell Avenue</gpxx:StreetAddress>
          <gpxx:City>Fort Wayne</gpxx:City>
          <gpxx:State>IN</gpxx:State>
          <gpxx:Country>United States</gpxx:Country>
        </gpxx:Address>
      </gpxx:WaypointExtension>
    </extensions>
  </wpt>
  <wpt lat="41.458025" lon="-88.192576">
    <name>Taco Burrito King - Tesla Destination</name>
    <extensions>
      <gpxx:WaypointExtension>
        <gpxx:Address>
          <gpxx:Country>23836 W Eames Street</gpxx:Country>
        </gpxx:Address>
      </gpxx:WaypointExtension>
    </extensions>
  </wpt>
  <wpt lat="41.499687" lon="-87.888640">
    <name>Meijer - Tesla Supercharger</name>
    <extensions>
      <gpxx:WaypointExtension>
        <gpxx:Address>
          <gpxx:Country>11305 W Lincoln Hwy</gpxx:Country>
        </gpxx:Address>
      </gpxx:WaypointExtension>
    </extensions>
  </wpt>
  <wpt lat="41.159727" lon="-87.849068">
    <name>Meijer - Tesla Supercharger</name>
    <extensions>
      <gpxx:WaypointExtension>
        <gpxx:Address>
          <gpxx:Country>990 N Kinzie Ave</gpxx:Country>
        </gpxx:Address>
      </gpxx:WaypointExtension>
    </extensions>
  </wpt>
  <wpt lat="41.170774" lon="-87.846918">
    <name>Hampton Inn by Hilton Bourbonnais/Kankakee - Tesla Destination</name>
    <extensions>
      <gpxx:WaypointExtension>
        <gpxx:Address>
          <gpxx:Country>64 Ken Hayes Drive</gpxx:Country>
        </gpxx:Address>
      </gpxx:WaypointExtension>
    </extensions>
  </wpt>
  <wpt lat="41.468657" lon="-87.343363">
    <name>Meijer - Tesla Supercharger</name>
    <extensions>
      <gpxx:WaypointExtension>
        <gpxx:Address>
          <gpxx:Country>611 West Lincoln Highway</gpxx:Country>
        </gpxx:Address>
      </gpxx:WaypointExtension>
    </extensions>
  </wpt>
  <wpt lat="41.547332" lon="-86.897577">
    <name>Hero Pet Animal Hospital - Tesla Destination</name>
    <extensions>
      <gpxx:WaypointExtension>
        <gpxx:Address>
          <gpxx:Country>707 N Flynn Rd</gpxx:Country>
        </gpxx:Address>
      </gpxx:WaypointExtension>
    </extensions>
  </wpt>
  <wpt lat="41.339894" lon="-85.765865">
    <name>Tippecanoe Lake Country Club - Tesla Destination</name>
    <extensions>
      <gpxx:WaypointExtension>
        <gpxx:Address>
          <gpxx:Country>7245 N Kalorama Rd</gpxx:Country>
        </gpxx:Address>
      </gpxx:WaypointExtension>
    </extensions>
  </wpt>
  <wpt lat="41.238760" lon="-85.819659">
    <name>Wyndham Garden Warsaw - Tesla Destination</name>
    <extensions>
      <gpxx:WaypointExtension>
        <gpxx:Address>
          <gpxx:Country>2519 E Center St</gpxx:Country>
        </gpxx:Address>
      </gpxx:WaypointExtension>
    </extensions>
  </wpt>
  <wpt lat="41.034321" lon="-85.359994">
    <name>Joseph Decuis Farmstead - Tesla Destination</name>
    <extensions>
      <gpxx:WaypointExtension>
        <gpxx:Address>
          <gpxx:Country>6756 E 900 S</gpxx:Country>
        </gpxx:Address>
      </gpxx:WaypointExtension>
    </extensions>
  </wpt>
  <wpt lat="41.124738" lon="-85.212139">
    <name>Sweetwater Sound - Tesla Destination</name>
    <extensions>
      <gpxx:WaypointExtension>
        <gpxx:Address>
          <gpxx:Country>5501 US Hwy 30 W</gpxx:Country>
        </gpxx:Address>
      </gpxx:WaypointExtension>
    </extensions>
  </wpt>
  <wpt lat="40.964868" lon="-85.372749">
    <name>The Inn at Joseph Decuis - Tesla Destination</name>
    <extensions>
      <gpxx:WaypointExtension>
        <gpxx:Address>
          <gpxx:Country>492 N Main St</gpxx:Country>
        </gpxx:Address>
      </gpxx:WaypointExtension>
    </extensions>
  </wpt>
  <wpt lat="41.073150" lon="-85.218180">
    <name>Meijer - Tesla Supercharger</name>
    <extensions>
      <gpxx:WaypointExtension>
        <gpxx:Address>
          <gpxx:Country>5909  Illinois Road</gpxx:Country>
        </gpxx:Address>
      </gpxx:WaypointExtension>
    </extensions>
  </wpt>
  <wpt lat="41.138488" lon="-85.163426">
    <name>Meijer - Tesla Supercharger</name>
    <extensions>
      <gpxx:WaypointExtension>
        <gpxx:Address>
          <gpxx:Country>6309 Lima Road</gpxx:Country>
        </gpxx:Address>
      </gpxx:WaypointExtension>
    </extensions>
  </wpt>
  <wpt lat="41.122117" lon="-85.125386">
    <name>Bakerstreet Steakhouse - Tesla Destination</name>
    <extensions>
      <gpxx:WaypointExtension>
        <gpxx:Address>
          <gpxx:Country>4820 N Clinton St</gpxx:Country>
        </gpxx:Address>
      </gpxx:WaypointExtension>
    </extensions>
  </wpt>
  <wpt lat="41.043437" lon="-85.238603">
    <name>Casa! Ristorante - Tesla Destination</name>
    <extensions>
      <gpxx:WaypointExtension>
        <gpxx:Address>
          <gpxx:Country>7545 W Jefferson Blvd</gpxx:Country>
        </gpxx:Address>
      </gpxx:WaypointExtension>
    </extensions>
  </wpt>
  <wpt lat="40.961898" lon="-85.373626">
    <name>Joseph Decuis Restaurant - Tesla Destination</name>
    <extensions>
      <gpxx:WaypointExtension>
        <gpxx:Address>
          <gpxx:Country>191 N Main St</gpxx:Country>
        </gpxx:Address>
      </gpxx:WaypointExtension>
    </extensions>
  </wpt>
  <wpt lat="41.705116" lon="-86.621515">
    <name>Knute Rockne Travel Plaza - Tesla Supercharger</name>
    <extensions>
      <gpxx:WaypointExtension>
        <gpxx:Address>
          <gpxx:Country>3 South Knute Rockne</gpxx:Country>
        </gpxx:Address>
      </gpxx:WaypointExtension>
    </extensions>
  </wpt>
  <wpt lat="41.707664" lon="-86.623121">
    <name>Wilbur Shaw Travel Plaza - Tesla Supercharger</name>
    <extensions>
      <gpxx:WaypointExtension>
        <gpxx:Address>
          <gpxx:Country>7 North Wilbur Shaw Plaza</gpxx:Country>
        </gpxx:Address>
      </gpxx:WaypointExtension>
    </extensions>
  </wpt>
  <wpt lat="41.673831" lon="-86.891275">
    <name>Michigan City - Tesla Supercharger</name>
    <extensions>
      <gpxx:WaypointExtension>
        <gpxx:Address>
          <gpxx:Country>5150 Franklin Street</gpxx:Country>
        </gpxx:Address>
      </gpxx:WaypointExtension>
    </extensions>
  </wpt>
  <wpt lat="41.717337" lon="-86.188630">
    <name>University Park Mall - Tesla Supercharger</name>
    <extensions>
      <gpxx:WaypointExtension>
        <gpxx:Address>
          <gpxx:Country>6501 Grape Rd</gpxx:Country>
        </gpxx:Address>
      </gpxx:WaypointExtension>
    </extensions>
  </wpt>
  <wpt lat="41.705689" lon="-86.187110">
    <name>Meijer - Tesla Supercharger</name>
    <extensions>
      <gpxx:WaypointExtension>
        <gpxx:Address>
          <gpxx:Country>5020 Grape Rd</gpxx:Country>
        </gpxx:Address>
      </gpxx:WaypointExtension>
    </extensions>
  </wpt>
  <wpt lat="41.691788" lon="-86.234187">
    <name>Eddy Street Commons Parking Garage - Tesla Supercharger</name>
    <extensions>
      <gpxx:WaypointExtension>
        <gpxx:Address>
          <gpxx:Country>595 Spring St</gpxx:Country>
        </gpxx:Address>
      </gpxx:WaypointExtension>
    </extensions>
  </wpt>
  <rte>
    <name>Day 1 - Wed, Jun 11, 2025</name>
    <extensions>
      <gpxx:RouteExtension>
        <gpxx:IsAutoNamed>false</gpxx:IsAutoNamed>
        <gpxx:DisplayColor>Blue</gpxx:DisplayColor>
      </gpxx:RouteExtension>
      <trp:Trip>
        <trp:TransportationMode>Automotive</trp:TransportationMode>
      </trp:Trip>
      <tmd:TripMetaData>
        <tmd:TripName>EV PT2025 - Day 3 | Allen County War Memorial Coliseum</tmd:TripName>
        <tmd:Date>2025-06-11T14:00:00.000Z</tmd:Date>
        <tmd:DayNumber>1</tmd:DayNumber>
      </tmd:TripMetaData>
    </extensions>
    <rtept lat="41.459289" lon="-88.079154">
      <time>2025-06-11T14:00:00.000Z</time>
      <name>Rt 66 Raceway - Gate 11</name>
      <sym>Flag, Blue</sym>
      <extensions>
        <trp:ViaPoint>
          <trp:DepartureTime>2025-06-11T14:00:00.000Z</trp:DepartureTime>
          <trp:CalculationMode>FasterTime</trp:CalculationMode>
          <trp:ElevationMode>Standard</trp:ElevationMode>
        </trp:ViaPoint>
        <gpxx:RoutePointExtension>
          <gpxx:Subclass>000000000000FFFFFFFFFFFFFFFFFFFFFFFF</gpxx:Subclass>
          <gpxx:rpt lat="41.459289" lon="-88.079154"></gpxx:rpt>
          <gpxx:rpt lat="41.459287" lon="-88.079217"></gpxx:rpt>
          <gpxx:rpt lat="41.459275" lon="-88.079462"></gpxx:rpt>
          <gpxx:rpt lat="41.458829" lon="-88.079435"></gpxx:rpt>
          <gpxx:rpt lat="41.458444" lon="-88.079422"></gpxx:rpt>
          <gpxx:rpt lat="41.457631" lon="-88.079393"></gpxx:rpt>
          <gpxx:rpt lat="41.455074" lon="-88.079328"></gpxx:rpt>
          <gpxx:rpt lat="41.453852" lon="-88.079296"></gpxx:rpt>
          <gpxx:rpt lat="41.452826" lon="-88.079269"></gpxx:rpt>
          <gpxx:rpt lat="41.451632" lon="-88.079253"></gpxx:rpt>
          <gpxx:rpt lat="41.450421" lon="-88.079199"></gpxx:rpt>
          <gpxx:rpt lat="41.450412" lon="-88.079198"></gpxx:rpt>
          <gpxx:rpt lat="41.449597" lon="-88.079184"></gpxx:rpt>
          <gpxx:rpt lat="41.449214" lon="-88.079177"></gpxx:rpt>
          <gpxx:rpt lat="41.448538" lon="-88.079174"></gpxx:rpt>
          <gpxx:rpt lat="41.447925" lon="-88.079171"></gpxx:rpt>
          <gpxx:rpt lat="41.446939" lon="-88.079107"></gpxx:rpt>
          <gpxx:rpt lat="41.446825" lon="-88.079102"></gpxx:rpt>
          <gpxx:rpt lat="41.444397" lon="-88.079027"></gpxx:rpt>
          <gpxx:rpt lat="41.441258" lon="-88.078936"></gpxx:rpt>
          <gpxx:rpt lat="41.439587" lon="-88.078887"></gpxx:rpt>
          <gpxx:rpt lat="41.437166" lon="-88.078812"></gpxx:rpt>
          <gpxx:rpt lat="41.435212" lon="-88.078748"></gpxx:rpt>
          <gpxx:rpt lat="41.434659" lon="-88.078737"></gpxx:rpt>
          <gpxx:rpt lat="41.433245" lon="-88.078711"></gpxx:rpt>
          <gpxx:rpt lat="41.432986" lon="-88.078704"></gpxx:rpt>
          <gpxx:rpt lat="41.431021" lon="-88.078608"></gpxx:rpt>
          <gpxx:rpt lat="41.430846" lon="-88.078608"></gpxx:rpt>
          <gpxx:rpt lat="41.430554" lon="-88.078608"></gpxx:rpt>
          <gpxx:rpt lat="41.430110" lon="-88.078648"></gpxx:rpt>
          <gpxx:rpt lat="41.429951" lon="-88.078662"></gpxx:rpt>
          <gpxx:rpt lat="41.429950" lon="-88.078743"></gpxx:rpt>
          <gpxx:rpt lat="41.429950" lon="-88.078743">
            <gpxx:Subclass>000000000000FFFFFFFFFFFFFFFFFFFFFFFF</gpxx:Subclass>
          </gpxx:rpt>
        </gpxx:RoutePointExtension>
      </extensions>
    </rtept>
    <rtept lat="41.429950" lon="-88.078743">
      <time>2025-06-11T14:02:24.000Z</time>
      <name>Left on Manhattan/Arsenal Rd</name>
      <extensions>
        <trp:ViaPoint>
          <trp:DepartureTime>2025-06-11T15:02:24.000Z</trp:DepartureTime>
          <trp:StopDuration>PT1H</trp:StopDuration>
          <trp:ArrivalTime>2025-06-11T14:02:24.000Z</trp:ArrivalTime>
          <trp:CalculationMode>FasterTime</trp:CalculationMode>
          <trp:ElevationMode>Standard</trp:ElevationMode>
        </trp:ViaPoint>
        <gpxx:RoutePointExtension>
          <gpxx:Subclass>000000000000FFFFFFFFFFFFFFFFFFFFFFFF</gpxx:Subclass>
          <gpxx:rpt lat="41.429950" lon="-88.078743"></gpxx:rpt>
          <gpxx:rpt lat="41.429951" lon="-88.078662"></gpxx:rpt>
          <gpxx:rpt lat="41.429951" lon="-88.078447"></gpxx:rpt>
          <gpxx:rpt lat="41.429953" lon="-88.078292"></gpxx:rpt>
          <gpxx:rpt lat="41.429961" lon="-88.077772"></gpxx:rpt>
          <gpxx:rpt lat="41.429965" lon="-88.077493"></gpxx:rpt>
          <gpxx:rpt lat="41.429978" lon="-88.076632"></gpxx:rpt>
          <gpxx:rpt lat="41.429999" lon="-88.075773"></gpxx:rpt>
          <gpxx:rpt lat="41.429999" lon="-88.075747"></gpxx:rpt>
          <gpxx:rpt lat="41.430003" lon="-88.075565"></gpxx:rpt>
          <gpxx:rpt lat="41.430065" lon="-88.072132"></gpxx:rpt>
          <gpxx:rpt lat="41.430065" lon="-88.072107"></gpxx:rpt>
          <gpxx:rpt lat="41.430078" lon="-88.071230"></gpxx:rpt>
          <gpxx:rpt lat="41.430083" lon="-88.070956"></gpxx:rpt>
          <gpxx:rpt lat="41.430112" lon="-88.068981"></gpxx:rpt>
          <gpxx:rpt lat="41.430112" lon="-88.068968"></gpxx:rpt>
          <gpxx:rpt lat="41.430130" lon="-88.068078"></gpxx:rpt>
          <gpxx:rpt lat="41.430136" lon="-88.067738"></gpxx:rpt>
          <gpxx:rpt lat="41.430164" lon="-88.066319"></gpxx:rpt>
          <gpxx:rpt lat="41.430199" lon="-88.064567"></gpxx:rpt>
          <gpxx:rpt lat="41.430303" lon="-88.059230"></gpxx:rpt>
          <gpxx:rpt lat="41.430381" lon="-88.055031"></gpxx:rpt>
          <gpxx:rpt lat="41.430473" lon="-88.049572"></gpxx:rpt>
          <gpxx:rpt lat="41.430486" lon="-88.048794"></gpxx:rpt>
          <gpxx:rpt lat="41.430552" lon="-88.044797"></gpxx:rpt>
          <gpxx:rpt lat="41.430632" lon="-88.039978"></gpxx:rpt>
          <gpxx:rpt lat="41.430714" lon="-88.037863"></gpxx:rpt>
          <gpxx:rpt lat="41.430744" lon="-88.037081"></gpxx:rpt>
          <gpxx:rpt lat="41.430745" lon="-88.037049"></gpxx:rpt>
          <gpxx:rpt lat="41.430751" lon="-88.036896"></gpxx:rpt>
          <gpxx:rpt lat="41.430778" lon="-88.036209"></gpxx:rpt>
          <gpxx:rpt lat="41.430791" lon="-88.035854"></gpxx:rpt>
          <gpxx:rpt lat="41.430812" lon="-88.035320"></gpxx:rpt>
          <gpxx:rpt lat="41.430828" lon="-88.034892"></gpxx:rpt>
          <gpxx:rpt lat="41.430855" lon="-88.034202"></gpxx:rpt>
          <gpxx:rpt lat="41.430967" lon="-88.031253"></gpxx:rpt>
          <gpxx:rpt lat="41.431152" lon="-88.026648"></gpxx:rpt>
          <gpxx:rpt lat="41.431181" lon="-88.025830"></gpxx:rpt>
          <gpxx:rpt lat="41.431218" lon="-88.024820"></gpxx:rpt>
          <gpxx:rpt lat="41.431359" lon="-88.020883"></gpxx:rpt>
          <gpxx:rpt lat="41.431423" lon="-88.017053"></gpxx:rpt>
          <gpxx:rpt lat="41.431476" lon="-88.013541"></gpxx:rpt>
          <gpxx:rpt lat="41.431478" lon="-88.013383"></gpxx:rpt>
          <gpxx:rpt lat="41.431486" lon="-88.012837"></gpxx:rpt>
          <gpxx:rpt lat="41.431495" lon="-88.012257"></gpxx:rpt>
          <gpxx:rpt lat="41.431581" lon="-88.006559"></gpxx:rpt>
          <gpxx:rpt lat="41.431594" lon="-88.005713"></gpxx:rpt>
          <gpxx:rpt lat="41.431595" lon="-88.005695"></gpxx:rpt>
          <gpxx:rpt lat="41.431599" lon="-88.005317"></gpxx:rpt>
          <gpxx:rpt lat="41.431609" lon="-88.004552"></gpxx:rpt>
          <gpxx:rpt lat="41.431628" lon="-88.003052"></gpxx:rpt>
          <gpxx:rpt lat="41.431648" lon="-88.001529"></gpxx:rpt>
          <gpxx:rpt lat="41.431651" lon="-88.001337"></gpxx:rpt>
          <gpxx:rpt lat="41.431674" lon="-87.999459"></gpxx:rpt>
          <gpxx:rpt lat="41.431673" lon="-87.999217"></gpxx:rpt>
          <gpxx:rpt lat="41.431680" lon="-87.998661"></gpxx:rpt>
          <gpxx:rpt lat="41.431687" lon="-87.998286"></gpxx:rpt>
          <gpxx:rpt lat="41.431709" lon="-87.997062"></gpxx:rpt>
          <gpxx:rpt lat="41.431721" lon="-87.996210"></gpxx:rpt>
          <gpxx:rpt lat="41.431723" lon="-87.996094"></gpxx:rpt>
          <gpxx:rpt lat="41.431725" lon="-87.995960"></gpxx:rpt>
          <gpxx:rpt lat="41.431780" lon="-87.995732"></gpxx:rpt>
          <gpxx:rpt lat="41.431780" lon="-87.995732">
            <gpxx:Subclass>000000000000FFFFFFFFFFFFFFFFFFFFFFFF</gpxx:Subclass>
          </gpxx:rpt>
        </gpxx:RoutePointExtension>
      </extensions>
    </rtept>
    <rtept lat="41.431780" lon="-87.995732">
      <time>2025-06-11T15:07:22.000Z</time>
      <name>Turn right on US-52E/W North St</name>
      <extensions>
        <trp:ViaPoint>
          <trp:DepartureTime>2025-06-11T16:07:22.000Z</trp:DepartureTime>
          <trp:StopDuration>PT1H</trp:StopDuration>
          <trp:ArrivalTime>2025-06-11T15:07:22.000Z</trp:ArrivalTime>
          <trp:CalculationMode>FasterTime</trp:CalculationMode>
          <trp:ElevationMode>Standard</trp:ElevationMode>
        </trp:ViaPoint>
        <gpxx:RoutePointExtension>
          <gpxx:Subclass>000000000000FFFFFFFFFFFFFFFFFFFFFFFF</gpxx:Subclass>
          <gpxx:rpt lat="41.431780" lon="-87.995732"></gpxx:rpt>
          <gpxx:rpt lat="41.430000" lon="-87.994296"></gpxx:rpt>
          <gpxx:rpt lat="41.427842" lon="-87.992476"></gpxx:rpt>
          <gpxx:rpt lat="41.427577" lon="-87.992262"></gpxx:rpt>
          <gpxx:rpt lat="41.426654" lon="-87.991511"></gpxx:rpt>
          <gpxx:rpt lat="41.426531" lon="-87.991397"></gpxx:rpt>
          <gpxx:rpt lat="41.426291" lon="-87.991128"></gpxx:rpt>
          <gpxx:rpt lat="41.426247" lon="-87.991071"></gpxx:rpt>
          <gpxx:rpt lat="41.426080" lon="-87.990787"></gpxx:rpt>
          <gpxx:rpt lat="41.425939" lon="-87.990517"></gpxx:rpt>
          <gpxx:rpt lat="41.424979" lon="-87.988145"></gpxx:rpt>
          <gpxx:rpt lat="41.424763" lon="-87.987608"></gpxx:rpt>
          <gpxx:rpt lat="41.424688" lon="-87.987498"></gpxx:rpt>
          <gpxx:rpt lat="41.424176" lon="-87.987135"></gpxx:rpt>
          <gpxx:rpt lat="41.423815" lon="-87.986875"></gpxx:rpt>
          <gpxx:rpt lat="41.423571" lon="-87.986720"></gpxx:rpt>
          <gpxx:rpt lat="41.423152" lon="-87.986439"></gpxx:rpt>
          <gpxx:rpt lat="41.422423" lon="-87.985930"></gpxx:rpt>
          <gpxx:rpt lat="41.421336" lon="-87.985161"></gpxx:rpt>
          <gpxx:rpt lat="41.420867" lon="-87.984837"></gpxx:rpt>
          <gpxx:rpt lat="41.419983" lon="-87.984236"></gpxx:rpt>
          <gpxx:rpt lat="41.419359" lon="-87.983817"></gpxx:rpt>
          <gpxx:rpt lat="41.417572" lon="-87.982627"></gpxx:rpt>
          <gpxx:rpt lat="41.416684" lon="-87.982018"></gpxx:rpt>
          <gpxx:rpt lat="41.414179" lon="-87.980345"></gpxx:rpt>
          <gpxx:rpt lat="41.413633" lon="-87.979979"></gpxx:rpt>
          <gpxx:rpt lat="41.413521" lon="-87.979904"></gpxx:rpt>
          <gpxx:rpt lat="41.412154" lon="-87.978988"></gpxx:rpt>
          <gpxx:rpt lat="41.410262" lon="-87.977655"></gpxx:rpt>
          <gpxx:rpt lat="41.408759" lon="-87.976711"></gpxx:rpt>
          <gpxx:rpt lat="41.407589" lon="-87.975940"></gpxx:rpt>
          <gpxx:rpt lat="41.407564" lon="-87.975923"></gpxx:rpt>
          <gpxx:rpt lat="41.405618" lon="-87.974636"></gpxx:rpt>
          <gpxx:rpt lat="41.405177" lon="-87.974343"></gpxx:rpt>
          <gpxx:rpt lat="41.404847" lon="-87.974149"></gpxx:rpt>
          <gpxx:rpt lat="41.404509" lon="-87.973961"></gpxx:rpt>
          <gpxx:rpt lat="41.404214" lon="-87.973869"></gpxx:rpt>
          <gpxx:rpt lat="41.404164" lon="-87.973853"></gpxx:rpt>
          <gpxx:rpt lat="41.403887" lon="-87.973777"></gpxx:rpt>
          <gpxx:rpt lat="41.402984" lon="-87.973528"></gpxx:rpt>
          <gpxx:rpt lat="41.402973" lon="-87.973525"></gpxx:rpt>
          <gpxx:rpt lat="41.402887" lon="-87.973501"></gpxx:rpt>
          <gpxx:rpt lat="41.402030" lon="-87.973269"></gpxx:rpt>
          <gpxx:rpt lat="41.400718" lon="-87.972887"></gpxx:rpt>
          <gpxx:rpt lat="41.400253" lon="-87.972769"></gpxx:rpt>
          <gpxx:rpt lat="41.399777" lon="-87.972633"></gpxx:rpt>
          <gpxx:rpt lat="41.399403" lon="-87.972541"></gpxx:rpt>
          <gpxx:rpt lat="41.398933" lon="-87.972402"></gpxx:rpt>
          <gpxx:rpt lat="41.398402" lon="-87.972263"></gpxx:rpt>
          <gpxx:rpt lat="41.397631" lon="-87.972033"></gpxx:rpt>
          <gpxx:rpt lat="41.397285" lon="-87.971939"></gpxx:rpt>
          <gpxx:rpt lat="41.397057" lon="-87.971876"></gpxx:rpt>
          <gpxx:rpt lat="41.396842" lon="-87.971788"></gpxx:rpt>
          <gpxx:rpt lat="41.396654" lon="-87.971710"></gpxx:rpt>
          <gpxx:rpt lat="41.396222" lon="-87.971490"></gpxx:rpt>
          <gpxx:rpt lat="41.395757" lon="-87.971183"></gpxx:rpt>
          <gpxx:rpt lat="41.395160" lon="-87.970769"></gpxx:rpt>
          <gpxx:rpt lat="41.393190" lon="-87.969535"></gpxx:rpt>
          <gpxx:rpt lat="41.391639" lon="-87.968557"></gpxx:rpt>
          <gpxx:rpt lat="41.391403" lon="-87.968382"></gpxx:rpt>
          <gpxx:rpt lat="41.391118" lon="-87.968141"></gpxx:rpt>
          <gpxx:rpt lat="41.390920" lon="-87.967969"></gpxx:rpt>
          <gpxx:rpt lat="41.390637" lon="-87.967670"></gpxx:rpt>
          <gpxx:rpt lat="41.390292" lon="-87.967256"></gpxx:rpt>
          <gpxx:rpt lat="41.389793" lon="-87.966670"></gpxx:rpt>
          <gpxx:rpt lat="41.388900" lon="-87.965622"></gpxx:rpt>
          <gpxx:rpt lat="41.388890" lon="-87.965610"></gpxx:rpt>
          <gpxx:rpt lat="41.388062" lon="-87.964571"></gpxx:rpt>
          <gpxx:rpt lat="41.386240" lon="-87.962393"></gpxx:rpt>
          <gpxx:rpt lat="41.385220" lon="-87.961194"></gpxx:rpt>
          <gpxx:rpt lat="41.385189" lon="-87.961159"></gpxx:rpt>
          <gpxx:rpt lat="41.384875" lon="-87.960797"></gpxx:rpt>
          <gpxx:rpt lat="41.384655" lon="-87.960574"></gpxx:rpt>
          <gpxx:rpt lat="41.384275" lon="-87.960365"></gpxx:rpt>
          <gpxx:rpt lat="41.383916" lon="-87.960251"></gpxx:rpt>
          <gpxx:rpt lat="41.383552" lon="-87.960209"></gpxx:rpt>
          <gpxx:rpt lat="41.382967" lon="-87.960203"></gpxx:rpt>
          <gpxx:rpt lat="41.381884" lon="-87.960174"></gpxx:rpt>
          <gpxx:rpt lat="41.380794" lon="-87.960145"></gpxx:rpt>
          <gpxx:rpt lat="41.379809" lon="-87.960126"></gpxx:rpt>
          <gpxx:rpt lat="41.378090" lon="-87.960091"></gpxx:rpt>
          <gpxx:rpt lat="41.376659" lon="-87.960062"></gpxx:rpt>
          <gpxx:rpt lat="41.375001" lon="-87.960028"></gpxx:rpt>
          <gpxx:rpt lat="41.372751" lon="-87.960022"></gpxx:rpt>
          <gpxx:rpt lat="41.371579" lon="-87.959994"></gpxx:rpt>
          <gpxx:rpt lat="41.367718" lon="-87.959915"></gpxx:rpt>
          <gpxx:rpt lat="41.367020" lon="-87.959927"></gpxx:rpt>
          <gpxx:rpt lat="41.366057" lon="-87.959918"></gpxx:rpt>
          <gpxx:rpt lat="41.365646" lon="-87.959908"></gpxx:rpt>
          <gpxx:rpt lat="41.363067" lon="-87.959880"></gpxx:rpt>
          <gpxx:rpt lat="41.362818" lon="-87.959867"></gpxx:rpt>
          <gpxx:rpt lat="41.362117" lon="-87.959867"></gpxx:rpt>
          <gpxx:rpt lat="41.360264" lon="-87.959820"></gpxx:rpt>
          <gpxx:rpt lat="41.359997" lon="-87.959806"></gpxx:rpt>
          <gpxx:rpt lat="41.359450" lon="-87.959803"></gpxx:rpt>
          <gpxx:rpt lat="41.358574" lon="-87.959774"></gpxx:rpt>
          <gpxx:rpt lat="41.357209" lon="-87.959762"></gpxx:rpt>
          <gpxx:rpt lat="41.355252" lon="-87.959720"></gpxx:rpt>
          <gpxx:rpt lat="41.354665" lon="-87.959688"></gpxx:rpt>
          <gpxx:rpt lat="41.353818" lon="-87.959700"></gpxx:rpt>
          <gpxx:rpt lat="41.353069" lon="-87.959693"></gpxx:rpt>
          <gpxx:rpt lat="41.352896" lon="-87.959686"></gpxx:rpt>
          <gpxx:rpt lat="41.352747" lon="-87.959681"></gpxx:rpt>
          <gpxx:rpt lat="41.352451" lon="-87.959576"></gpxx:rpt>
          <gpxx:rpt lat="41.352330" lon="-87.959508"></gpxx:rpt>
          <gpxx:rpt lat="41.352222" lon="-87.959435"></gpxx:rpt>
          <gpxx:rpt lat="41.352082" lon="-87.959309"></gpxx:rpt>
          <gpxx:rpt lat="41.352071" lon="-87.959298"></gpxx:rpt>
          <gpxx:rpt lat="41.351921" lon="-87.959129"></gpxx:rpt>
          <gpxx:rpt lat="41.351803" lon="-87.958941"></gpxx:rpt>
          <gpxx:rpt lat="41.351714" lon="-87.958770"></gpxx:rpt>
          <gpxx:rpt lat="41.351640" lon="-87.958580"></gpxx:rpt>
          <gpxx:rpt lat="41.351603" lon="-87.958441"></gpxx:rpt>
          <gpxx:rpt lat="41.351572" lon="-87.958313"></gpxx:rpt>
          <gpxx:rpt lat="41.351542" lon="-87.958034"></gpxx:rpt>
          <gpxx:rpt lat="41.351528" lon="-87.957728"></gpxx:rpt>
          <gpxx:rpt lat="41.351545" lon="-87.957258"></gpxx:rpt>
          <gpxx:rpt lat="41.351548" lon="-87.957008"></gpxx:rpt>
          <gpxx:rpt lat="41.351554" lon="-87.956862"></gpxx:rpt>
          <gpxx:rpt lat="41.351576" lon="-87.956276"></gpxx:rpt>
          <gpxx:rpt lat="41.351598" lon="-87.955707"></gpxx:rpt>
          <gpxx:rpt lat="41.351671" lon="-87.953444"></gpxx:rpt>
          <gpxx:rpt lat="41.351704" lon="-87.952421"></gpxx:rpt>
          <gpxx:rpt lat="41.351782" lon="-87.950892"></gpxx:rpt>
          <gpxx:rpt lat="41.351789" lon="-87.950619"></gpxx:rpt>
          <gpxx:rpt lat="41.351808" lon="-87.949256"></gpxx:rpt>
          <gpxx:rpt lat="41.351809" lon="-87.949239"></gpxx:rpt>
          <gpxx:rpt lat="41.351833" lon="-87.947563"></gpxx:rpt>
          <gpxx:rpt lat="41.351842" lon="-87.946862"></gpxx:rpt>
          <gpxx:rpt lat="41.351843" lon="-87.946791"></gpxx:rpt>
          <gpxx:rpt lat="41.351855" lon="-87.945989"></gpxx:rpt>
          <gpxx:rpt lat="41.351889" lon="-87.944027"></gpxx:rpt>
          <gpxx:rpt lat="41.352018" lon="-87.931484"></gpxx:rpt>
          <gpxx:rpt lat="41.352149" lon="-87.923104"></gpxx:rpt>
          <gpxx:rpt lat="41.352226" lon="-87.918203"></gpxx:rpt>
          <gpxx:rpt lat="41.352249" lon="-87.915080"></gpxx:rpt>
          <gpxx:rpt lat="41.352264" lon="-87.912744"></gpxx:rpt>
          <gpxx:rpt lat="41.352344" lon="-87.909526"></gpxx:rpt>
          <gpxx:rpt lat="41.352372" lon="-87.908527"></gpxx:rpt>
          <gpxx:rpt lat="41.352381" lon="-87.907746"></gpxx:rpt>
          <gpxx:rpt lat="41.352395" lon="-87.907461"></gpxx:rpt>
          <gpxx:rpt lat="41.352408" lon="-87.905511"></gpxx:rpt>
          <gpxx:rpt lat="41.352419" lon="-87.904745"></gpxx:rpt>
          <gpxx:rpt lat="41.352492" lon="-87.901799"></gpxx:rpt>
          <gpxx:rpt lat="41.352618" lon="-87.895521"></gpxx:rpt>
          <gpxx:rpt lat="41.352677" lon="-87.891783"></gpxx:rpt>
          <gpxx:rpt lat="41.352716" lon="-87.889172"></gpxx:rpt>
          <gpxx:rpt lat="41.352795" lon="-87.884414"></gpxx:rpt>
          <gpxx:rpt lat="41.352806" lon="-87.882051"></gpxx:rpt>
          <gpxx:rpt lat="41.352675" lon="-87.882049"></gpxx:rpt>
          <gpxx:rpt lat="41.352675" lon="-87.882049">
            <gpxx:Subclass>000000000000FFFFFFFFFFFFFFFFFFFFFFFF</gpxx:Subclass>
          </gpxx:rpt>
        </gpxx:RoutePointExtension>
      </extensions>
    </rtept>
    <rtept lat="41.352675" lon="-87.882049">
      <time>2025-06-11T16:19:48.000Z</time>
      <name>Right on US-45S/US-52E</name>
      <extensions>
        <trp:ViaPoint>
          <trp:DepartureTime>2025-06-11T17:19:48.000Z</trp:DepartureTime>
          <trp:StopDuration>PT1H</trp:StopDuration>
          <trp:ArrivalTime>2025-06-11T16:19:48.000Z</trp:ArrivalTime>
          <trp:CalculationMode>FasterTime</trp:CalculationMode>
          <trp:ElevationMode>Standard</trp:ElevationMode>
        </trp:ViaPoint>
        <gpxx:RoutePointExtension>
          <gpxx:Subclass>000000000000FFFFFFFFFFFFFFFFFFFFFFFF</gpxx:Subclass>
          <gpxx:rpt lat="41.352675" lon="-87.882049"></gpxx:rpt>
          <gpxx:rpt lat="41.351942" lon="-87.882037"></gpxx:rpt>
          <gpxx:rpt lat="41.348612" lon="-87.881984"></gpxx:rpt>
          <gpxx:rpt lat="41.346964" lon="-87.882014"></gpxx:rpt>
          <gpxx:rpt lat="41.346830" lon="-87.882019"></gpxx:rpt>
          <gpxx:rpt lat="41.344947" lon="-87.882052"></gpxx:rpt>
          <gpxx:rpt lat="41.342106" lon="-87.882010"></gpxx:rpt>
          <gpxx:rpt lat="41.341035" lon="-87.882003"></gpxx:rpt>
          <gpxx:rpt lat="41.338267" lon="-87.881944"></gpxx:rpt>
          <gpxx:rpt lat="41.336655" lon="-87.881912"></gpxx:rpt>
          <gpxx:rpt lat="41.336488" lon="-87.881905"></gpxx:rpt>
          <gpxx:rpt lat="41.328911" lon="-87.881715"></gpxx:rpt>
          <gpxx:rpt lat="41.323712" lon="-87.881584"></gpxx:rpt>
          <gpxx:rpt lat="41.316371" lon="-87.881435"></gpxx:rpt>
          <gpxx:rpt lat="41.313142" lon="-87.881370"></gpxx:rpt>
          <gpxx:rpt lat="41.310220" lon="-87.881357"></gpxx:rpt>
          <gpxx:rpt lat="41.309129" lon="-87.881321"></gpxx:rpt>
          <gpxx:rpt lat="41.308919" lon="-87.881318"></gpxx:rpt>
          <gpxx:rpt lat="41.308086" lon="-87.881314"></gpxx:rpt>
          <gpxx:rpt lat="41.306285" lon="-87.881287"></gpxx:rpt>
          <gpxx:rpt lat="41.305607" lon="-87.881290"></gpxx:rpt>
          <gpxx:rpt lat="41.303687" lon="-87.881230"></gpxx:rpt>
          <gpxx:rpt lat="41.301562" lon="-87.881215"></gpxx:rpt>
          <gpxx:rpt lat="41.301006" lon="-87.881213"></gpxx:rpt>
          <gpxx:rpt lat="41.298629" lon="-87.881071"></gpxx:rpt>
          <gpxx:rpt lat="41.298385" lon="-87.881021"></gpxx:rpt>
          <gpxx:rpt lat="41.297777" lon="-87.880898"></gpxx:rpt>
          <gpxx:rpt lat="41.296162" lon="-87.880412"></gpxx:rpt>
          <gpxx:rpt lat="41.294669" lon="-87.879750"></gpxx:rpt>
          <gpxx:rpt lat="41.294669" lon="-87.879750">
            <gpxx:Subclass>000000000000FFFFFFFFFFFFFFFFFFFFFFFF</gpxx:Subclass>
          </gpxx:rpt>
        </gpxx:RoutePointExtension>
      </extensions>
    </rtept>
    <rtept lat="41.294669" lon="-87.879750">
      <time>2025-06-11T17:24:11.000Z</time>
      <name>Right on E 12000N Rd</name>
      <extensions>
        <trp:ViaPoint>
          <trp:DepartureTime>2025-06-11T18:24:11.000Z</trp:DepartureTime>
          <trp:StopDuration>PT1H</trp:StopDuration>
          <trp:ArrivalTime>2025-06-11T17:24:11.000Z</trp:ArrivalTime>
          <trp:CalculationMode>FasterTime</trp:CalculationMode>
          <trp:ElevationMode>Standard</trp:ElevationMode>
        </trp:ViaPoint>
        <gpxx:RoutePointExtension>
          <gpxx:Subclass>000000000000FFFFFFFFFFFFFFFFFFFFFFFF</gpxx:Subclass>
          <gpxx:rpt lat="41.294669" lon="-87.879750"></gpxx:rpt>
          <gpxx:rpt lat="41.294612" lon="-87.879725"></gpxx:rpt>
          <gpxx:rpt lat="41.294615" lon="-87.879576"></gpxx:rpt>
          <gpxx:rpt lat="41.294691" lon="-87.875234"></gpxx:rpt>
          <gpxx:rpt lat="41.294742" lon="-87.870626"></gpxx:rpt>
          <gpxx:rpt lat="41.294783" lon="-87.866554"></gpxx:rpt>
          <gpxx:rpt lat="41.294837" lon="-87.861834"></gpxx:rpt>
          <gpxx:rpt lat="41.294870" lon="-87.859087"></gpxx:rpt>
          <gpxx:rpt lat="41.294897" lon="-87.857318"></gpxx:rpt>
          <gpxx:rpt lat="41.294979" lon="-87.851952"></gpxx:rpt>
          <gpxx:rpt lat="41.295010" lon="-87.850305"></gpxx:rpt>
          <gpxx:rpt lat="41.295038" lon="-87.847265"></gpxx:rpt>
          <gpxx:rpt lat="41.295109" lon="-87.842542"></gpxx:rpt>
          <gpxx:rpt lat="41.295142" lon="-87.839628"></gpxx:rpt>
          <gpxx:rpt lat="41.295164" lon="-87.837673"></gpxx:rpt>
          <gpxx:rpt lat="41.295178" lon="-87.836479"></gpxx:rpt>
          <gpxx:rpt lat="41.295241" lon="-87.831051"></gpxx:rpt>
          <gpxx:rpt lat="41.295243" lon="-87.830242"></gpxx:rpt>
          <gpxx:rpt lat="41.295302" lon="-87.826366"></gpxx:rpt>
          <gpxx:rpt lat="41.295320" lon="-87.824963"></gpxx:rpt>
          <gpxx:rpt lat="41.295342" lon="-87.823208"></gpxx:rpt>
          <gpxx:rpt lat="41.295380" lon="-87.820277"></gpxx:rpt>
          <gpxx:rpt lat="41.295416" lon="-87.817933"></gpxx:rpt>
          <gpxx:rpt lat="41.295424" lon="-87.817462"></gpxx:rpt>
          <gpxx:rpt lat="41.295475" lon="-87.814184"></gpxx:rpt>
          <gpxx:rpt lat="41.295484" lon="-87.813799"></gpxx:rpt>
          <gpxx:rpt lat="41.295514" lon="-87.812430"></gpxx:rpt>
          <gpxx:rpt lat="41.295530" lon="-87.810133"></gpxx:rpt>
          <gpxx:rpt lat="41.295533" lon="-87.809621"></gpxx:rpt>
          <gpxx:rpt lat="41.295554" lon="-87.808941"></gpxx:rpt>
          <gpxx:rpt lat="41.295619" lon="-87.803976"></gpxx:rpt>
          <gpxx:rpt lat="41.295626" lon="-87.802701"></gpxx:rpt>
          <gpxx:rpt lat="41.295637" lon="-87.800967"></gpxx:rpt>
          <gpxx:rpt lat="41.295657" lon="-87.799301"></gpxx:rpt>
          <gpxx:rpt lat="41.295674" lon="-87.797842"></gpxx:rpt>
          <gpxx:rpt lat="41.295691" lon="-87.796468"></gpxx:rpt>
          <gpxx:rpt lat="41.295702" lon="-87.794843"></gpxx:rpt>
          <gpxx:rpt lat="41.295702" lon="-87.794645"></gpxx:rpt>
          <gpxx:rpt lat="41.295737" lon="-87.792212"></gpxx:rpt>
          <gpxx:rpt lat="41.295751" lon="-87.790821"></gpxx:rpt>
          <gpxx:rpt lat="41.295785" lon="-87.788708"></gpxx:rpt>
          <gpxx:rpt lat="41.295793" lon="-87.787803"></gpxx:rpt>
          <gpxx:rpt lat="41.295814" lon="-87.784672"></gpxx:rpt>
          <gpxx:rpt lat="41.295832" lon="-87.783328"></gpxx:rpt>
          <gpxx:rpt lat="41.295835" lon="-87.783145"></gpxx:rpt>
          <gpxx:rpt lat="41.295859" lon="-87.781134"></gpxx:rpt>
          <gpxx:rpt lat="41.295870" lon="-87.780289"></gpxx:rpt>
          <gpxx:rpt lat="41.295879" lon="-87.777902"></gpxx:rpt>
          <gpxx:rpt lat="41.295949" lon="-87.770346"></gpxx:rpt>
          <gpxx:rpt lat="41.295981" lon="-87.765548"></gpxx:rpt>
          <gpxx:rpt lat="41.296007" lon="-87.761878"></gpxx:rpt>
          <gpxx:rpt lat="41.296078" lon="-87.755449"></gpxx:rpt>
          <gpxx:rpt lat="41.296081" lon="-87.755155"></gpxx:rpt>
          <gpxx:rpt lat="41.296079" lon="-87.754436"></gpxx:rpt>
          <gpxx:rpt lat="41.296085" lon="-87.753951"></gpxx:rpt>
          <gpxx:rpt lat="41.296093" lon="-87.751163"></gpxx:rpt>
          <gpxx:rpt lat="41.296106" lon="-87.750041"></gpxx:rpt>
          <gpxx:rpt lat="41.296151" lon="-87.746436"></gpxx:rpt>
          <gpxx:rpt lat="41.296182" lon="-87.742540"></gpxx:rpt>
          <gpxx:rpt lat="41.296247" lon="-87.735088"></gpxx:rpt>
          <gpxx:rpt lat="41.296278" lon="-87.731481"></gpxx:rpt>
          <gpxx:rpt lat="41.296297" lon="-87.730019"></gpxx:rpt>
          <gpxx:rpt lat="41.296335" lon="-87.727187"></gpxx:rpt>
          <gpxx:rpt lat="41.296361" lon="-87.724883"></gpxx:rpt>
          <gpxx:rpt lat="41.296366" lon="-87.722655"></gpxx:rpt>
          <gpxx:rpt lat="41.296460" lon="-87.710835"></gpxx:rpt>
          <gpxx:rpt lat="41.296519" lon="-87.707814"></gpxx:rpt>
          <gpxx:rpt lat="41.296490" lon="-87.706623"></gpxx:rpt>
          <gpxx:rpt lat="41.296491" lon="-87.706244"></gpxx:rpt>
          <gpxx:rpt lat="41.296504" lon="-87.703442"></gpxx:rpt>
          <gpxx:rpt lat="41.296518" lon="-87.702749"></gpxx:rpt>
          <gpxx:rpt lat="41.296526" lon="-87.701894"></gpxx:rpt>
          <gpxx:rpt lat="41.296652" lon="-87.688618"></gpxx:rpt>
          <gpxx:rpt lat="41.296685" lon="-87.684244"></gpxx:rpt>
          <gpxx:rpt lat="41.296703" lon="-87.681794"></gpxx:rpt>
          <gpxx:rpt lat="41.296737" lon="-87.676751"></gpxx:rpt>
          <gpxx:rpt lat="41.296758" lon="-87.672797"></gpxx:rpt>
          <gpxx:rpt lat="41.296791" lon="-87.669386"></gpxx:rpt>
          <gpxx:rpt lat="41.296811" lon="-87.664782"></gpxx:rpt>
          <gpxx:rpt lat="41.296844" lon="-87.660339"></gpxx:rpt>
          <gpxx:rpt lat="41.296878" lon="-87.655632"></gpxx:rpt>
          <gpxx:rpt lat="41.296879" lon="-87.655577"></gpxx:rpt>
          <gpxx:rpt lat="41.296938" lon="-87.650354"></gpxx:rpt>
          <gpxx:rpt lat="41.296936" lon="-87.650101"></gpxx:rpt>
          <gpxx:rpt lat="41.296950" lon="-87.648164"></gpxx:rpt>
          <gpxx:rpt lat="41.296963" lon="-87.646125"></gpxx:rpt>
          <gpxx:rpt lat="41.296960" lon="-87.645961"></gpxx:rpt>
          <gpxx:rpt lat="41.296976" lon="-87.644518"></gpxx:rpt>
          <gpxx:rpt lat="41.297019" lon="-87.640411"></gpxx:rpt>
          <gpxx:rpt lat="41.297027" lon="-87.638964"></gpxx:rpt>
          <gpxx:rpt lat="41.297066" lon="-87.635208"></gpxx:rpt>
          <gpxx:rpt lat="41.297073" lon="-87.634190"></gpxx:rpt>
          <gpxx:rpt lat="41.297071" lon="-87.634117"></gpxx:rpt>
          <gpxx:rpt lat="41.297087" lon="-87.633057"></gpxx:rpt>
          <gpxx:rpt lat="41.297095" lon="-87.632744"></gpxx:rpt>
          <gpxx:rpt lat="41.297096" lon="-87.632398"></gpxx:rpt>
          <gpxx:rpt lat="41.297116" lon="-87.631238"></gpxx:rpt>
          <gpxx:rpt lat="41.297116" lon="-87.631168"></gpxx:rpt>
          <gpxx:rpt lat="41.297130" lon="-87.627974"></gpxx:rpt>
          <gpxx:rpt lat="41.297127" lon="-87.627618"></gpxx:rpt>
          <gpxx:rpt lat="41.297130" lon="-87.626977"></gpxx:rpt>
          <gpxx:rpt lat="41.297142" lon="-87.626535"></gpxx:rpt>
          <gpxx:rpt lat="41.297149" lon="-87.624039"></gpxx:rpt>
          <gpxx:rpt lat="41.297153" lon="-87.623558"></gpxx:rpt>
          <gpxx:rpt lat="41.297178" lon="-87.621351"></gpxx:rpt>
          <gpxx:rpt lat="41.297195" lon="-87.619794"></gpxx:rpt>
          <gpxx:rpt lat="41.297261" lon="-87.613590"></gpxx:rpt>
          <gpxx:rpt lat="41.297268" lon="-87.612916"></gpxx:rpt>
          <gpxx:rpt lat="41.297269" lon="-87.611208"></gpxx:rpt>
          <gpxx:rpt lat="41.297313" lon="-87.608603"></gpxx:rpt>
          <gpxx:rpt lat="41.297319" lon="-87.608156"></gpxx:rpt>
          <gpxx:rpt lat="41.297322" lon="-87.607293"></gpxx:rpt>
          <gpxx:rpt lat="41.297337" lon="-87.606352"></gpxx:rpt>
          <gpxx:rpt lat="41.297346" lon="-87.605235"></gpxx:rpt>
          <gpxx:rpt lat="41.297356" lon="-87.603919"></gpxx:rpt>
          <gpxx:rpt lat="41.297389" lon="-87.599907"></gpxx:rpt>
          <gpxx:rpt lat="41.297389" lon="-87.599872"></gpxx:rpt>
          <gpxx:rpt lat="41.297413" lon="-87.595543"></gpxx:rpt>
          <gpxx:rpt lat="41.297439" lon="-87.593496"></gpxx:rpt>
          <gpxx:rpt lat="41.297462" lon="-87.591139"></gpxx:rpt>
          <gpxx:rpt lat="41.297487" lon="-87.588740"></gpxx:rpt>
          <gpxx:rpt lat="41.297493" lon="-87.588116"></gpxx:rpt>
          <gpxx:rpt lat="41.297503" lon="-87.586737"></gpxx:rpt>
          <gpxx:rpt lat="41.297516" lon="-87.584830"></gpxx:rpt>
          <gpxx:rpt lat="41.297519" lon="-87.584355"></gpxx:rpt>
          <gpxx:rpt lat="41.297523" lon="-87.583870"></gpxx:rpt>
          <gpxx:rpt lat="41.297529" lon="-87.583019"></gpxx:rpt>
          <gpxx:rpt lat="41.297529" lon="-87.582875"></gpxx:rpt>
          <gpxx:rpt lat="41.297542" lon="-87.581610"></gpxx:rpt>
          <gpxx:rpt lat="41.297566" lon="-87.579080"></gpxx:rpt>
          <gpxx:rpt lat="41.297572" lon="-87.578562"></gpxx:rpt>
          <gpxx:rpt lat="41.297611" lon="-87.572919"></gpxx:rpt>
          <gpxx:rpt lat="41.297630" lon="-87.569106"></gpxx:rpt>
          <gpxx:rpt lat="41.297639" lon="-87.568216"></gpxx:rpt>
          <gpxx:rpt lat="41.297665" lon="-87.565695"></gpxx:rpt>
          <gpxx:rpt lat="41.297681" lon="-87.564633"></gpxx:rpt>
          <gpxx:rpt lat="41.297694" lon="-87.562841"></gpxx:rpt>
          <gpxx:rpt lat="41.297713" lon="-87.561412"></gpxx:rpt>
          <gpxx:rpt lat="41.297721" lon="-87.560718"></gpxx:rpt>
          <gpxx:rpt lat="41.297725" lon="-87.560134"></gpxx:rpt>
          <gpxx:rpt lat="41.297746" lon="-87.555723"></gpxx:rpt>
          <gpxx:rpt lat="41.297768" lon="-87.553608"></gpxx:rpt>
          <gpxx:rpt lat="41.297846" lon="-87.545012"></gpxx:rpt>
          <gpxx:rpt lat="41.297855" lon="-87.543979"></gpxx:rpt>
          <gpxx:rpt lat="41.297901" lon="-87.540355"></gpxx:rpt>
          <gpxx:rpt lat="41.297917" lon="-87.538175"></gpxx:rpt>
          <gpxx:rpt lat="41.297999" lon="-87.532059"></gpxx:rpt>
          <gpxx:rpt lat="41.298025" lon="-87.530036"></gpxx:rpt>
          <gpxx:rpt lat="41.298067" lon="-87.526881"></gpxx:rpt>
          <gpxx:rpt lat="41.298069" lon="-87.526709"></gpxx:rpt>
          <gpxx:rpt lat="41.298069" lon="-87.526709">
            <gpxx:Subclass>000000000000FFFFFFFFFFFFFFFFFFFFFFFF</gpxx:Subclass>
          </gpxx:rpt>
        </gpxx:RoutePointExtension>
      </extensions>
    </rtept>
    <rtept lat="41.298069" lon="-87.526709">
      <time>2025-06-11T18:44:11.000Z</time>
      <name>Right on N 18000E Rd / Stateline Rd</name>
      <extensions>
        <trp:ViaPoint>
          <trp:DepartureTime>2025-06-11T19:44:11.000Z</trp:DepartureTime>
          <trp:StopDuration>PT1H</trp:StopDuration>
          <trp:ArrivalTime>2025-06-11T18:44:11.000Z</trp:ArrivalTime>
          <trp:CalculationMode>FasterTime</trp:CalculationMode>
          <trp:ElevationMode>Standard</trp:ElevationMode>
        </trp:ViaPoint>
        <gpxx:RoutePointExtension>
          <gpxx:Subclass>000000000000FFFFFFFFFFFFFFFFFFFFFFFF</gpxx:Subclass>
          <gpxx:rpt lat="41.298069" lon="-87.526709"></gpxx:rpt>
          <gpxx:rpt lat="41.294074" lon="-87.526754"></gpxx:rpt>
          <gpxx:rpt lat="41.293219" lon="-87.526736"></gpxx:rpt>
          <gpxx:rpt lat="41.292724" lon="-87.526737"></gpxx:rpt>
          <gpxx:rpt lat="41.290904" lon="-87.526736"></gpxx:rpt>
          <gpxx:rpt lat="41.288652" lon="-87.526735"></gpxx:rpt>
          <gpxx:rpt lat="41.288337" lon="-87.526734"></gpxx:rpt>
          <gpxx:rpt lat="41.286655" lon="-87.526729"></gpxx:rpt>
          <gpxx:rpt lat="41.286288" lon="-87.526728"></gpxx:rpt>
          <gpxx:rpt lat="41.286060" lon="-87.526728"></gpxx:rpt>
          <gpxx:rpt lat="41.283008" lon="-87.526716"></gpxx:rpt>
          <gpxx:rpt lat="41.283008" lon="-87.526716">
            <gpxx:Subclass>000000000000FFFFFFFFFFFFFFFFFFFFFFFF</gpxx:Subclass>
          </gpxx:rpt>
        </gpxx:RoutePointExtension>
      </extensions>
    </rtept>
    <rtept lat="41.283008" lon="-87.526716">
      <time>2025-06-11T19:45:46.000Z</time>
      <name>Left onto 185th Ave</name>
      <extensions>
        <trp:ViaPoint>
          <trp:DepartureTime>2025-06-11T20:45:46.000Z</trp:DepartureTime>
          <trp:StopDuration>PT1H</trp:StopDuration>
          <trp:ArrivalTime>2025-06-11T19:45:46.000Z</trp:ArrivalTime>
          <trp:CalculationMode>FasterTime</trp:CalculationMode>
          <trp:ElevationMode>Standard</trp:ElevationMode>
        </trp:ViaPoint>
        <gpxx:RoutePointExtension>
          <gpxx:Subclass>000000000000FFFFFFFFFFFFFFFFFFFFFFFF</gpxx:Subclass>
          <gpxx:rpt lat="41.283008" lon="-87.526716"></gpxx:rpt>
          <gpxx:rpt lat="41.282962" lon="-87.526716"></gpxx:rpt>
          <gpxx:rpt lat="41.282972" lon="-87.523947"></gpxx:rpt>
          <gpxx:rpt lat="41.282976" lon="-87.522843"></gpxx:rpt>
          <gpxx:rpt lat="41.282970" lon="-87.522349"></gpxx:rpt>
          <gpxx:rpt lat="41.282960" lon="-87.520309"></gpxx:rpt>
          <gpxx:rpt lat="41.282971" lon="-87.519357"></gpxx:rpt>
          <gpxx:rpt lat="41.282977" lon="-87.519136"></gpxx:rpt>
          <gpxx:rpt lat="41.282917" lon="-87.516754"></gpxx:rpt>
          <gpxx:rpt lat="41.282918" lon="-87.516497"></gpxx:rpt>
          <gpxx:rpt lat="41.282997" lon="-87.516183"></gpxx:rpt>
          <gpxx:rpt lat="41.283283" lon="-87.515347"></gpxx:rpt>
          <gpxx:rpt lat="41.283439" lon="-87.514846"></gpxx:rpt>
          <gpxx:rpt lat="41.283547" lon="-87.514499"></gpxx:rpt>
          <gpxx:rpt lat="41.283590" lon="-87.514360"></gpxx:rpt>
          <gpxx:rpt lat="41.283683" lon="-87.513978"></gpxx:rpt>
          <gpxx:rpt lat="41.283763" lon="-87.513507"></gpxx:rpt>
          <gpxx:rpt lat="41.283899" lon="-87.512682"></gpxx:rpt>
          <gpxx:rpt lat="41.284154" lon="-87.511190"></gpxx:rpt>
          <gpxx:rpt lat="41.284215" lon="-87.510833"></gpxx:rpt>
          <gpxx:rpt lat="41.284245" lon="-87.510432"></gpxx:rpt>
          <gpxx:rpt lat="41.284248" lon="-87.510382"></gpxx:rpt>
          <gpxx:rpt lat="41.284235" lon="-87.509410"></gpxx:rpt>
          <gpxx:rpt lat="41.284138" lon="-87.508410"></gpxx:rpt>
          <gpxx:rpt lat="41.284170" lon="-87.507336"></gpxx:rpt>
          <gpxx:rpt lat="41.284156" lon="-87.506902"></gpxx:rpt>
          <gpxx:rpt lat="41.284158" lon="-87.506071"></gpxx:rpt>
          <gpxx:rpt lat="41.284154" lon="-87.505808"></gpxx:rpt>
          <gpxx:rpt lat="41.284133" lon="-87.505252"></gpxx:rpt>
          <gpxx:rpt lat="41.284089" lon="-87.504689"></gpxx:rpt>
          <gpxx:rpt lat="41.284012" lon="-87.503933"></gpxx:rpt>
          <gpxx:rpt lat="41.283825" lon="-87.502395"></gpxx:rpt>
          <gpxx:rpt lat="41.283749" lon="-87.502287"></gpxx:rpt>
          <gpxx:rpt lat="41.283510" lon="-87.501628"></gpxx:rpt>
          <gpxx:rpt lat="41.283360" lon="-87.501009"></gpxx:rpt>
          <gpxx:rpt lat="41.283336" lon="-87.500912"></gpxx:rpt>
          <gpxx:rpt lat="41.283143" lon="-87.500021"></gpxx:rpt>
          <gpxx:rpt lat="41.283077" lon="-87.499542"></gpxx:rpt>
          <gpxx:rpt lat="41.283067" lon="-87.499469"></gpxx:rpt>
          <gpxx:rpt lat="41.283059" lon="-87.499410"></gpxx:rpt>
          <gpxx:rpt lat="41.282904" lon="-87.497994"></gpxx:rpt>
          <gpxx:rpt lat="41.282892" lon="-87.497883"></gpxx:rpt>
          <gpxx:rpt lat="41.282846" lon="-87.497202"></gpxx:rpt>
          <gpxx:rpt lat="41.282846" lon="-87.497151"></gpxx:rpt>
          <gpxx:rpt lat="41.282843" lon="-87.496522"></gpxx:rpt>
          <gpxx:rpt lat="41.282842" lon="-87.496200"></gpxx:rpt>
          <gpxx:rpt lat="41.282838" lon="-87.494735"></gpxx:rpt>
          <gpxx:rpt lat="41.282838" lon="-87.494678"></gpxx:rpt>
          <gpxx:rpt lat="41.282833" lon="-87.492530"></gpxx:rpt>
          <gpxx:rpt lat="41.282833" lon="-87.492499"></gpxx:rpt>
          <gpxx:rpt lat="41.282829" lon="-87.491778"></gpxx:rpt>
          <gpxx:rpt lat="41.282826" lon="-87.491331"></gpxx:rpt>
          <gpxx:rpt lat="41.282822" lon="-87.490707"></gpxx:rpt>
          <gpxx:rpt lat="41.282821" lon="-87.490519"></gpxx:rpt>
          <gpxx:rpt lat="41.282811" lon="-87.488841"></gpxx:rpt>
          <gpxx:rpt lat="41.282811" lon="-87.488783"></gpxx:rpt>
          <gpxx:rpt lat="41.282803" lon="-87.487585"></gpxx:rpt>
          <gpxx:rpt lat="41.282802" lon="-87.487049"></gpxx:rpt>
          <gpxx:rpt lat="41.282798" lon="-87.486040"></gpxx:rpt>
          <gpxx:rpt lat="41.282788" lon="-87.482947"></gpxx:rpt>
          <gpxx:rpt lat="41.282765" lon="-87.478102"></gpxx:rpt>
          <gpxx:rpt lat="41.282753" lon="-87.475578"></gpxx:rpt>
          <gpxx:rpt lat="41.282747" lon="-87.474634"></gpxx:rpt>
          <gpxx:rpt lat="41.282711" lon="-87.468251"></gpxx:rpt>
          <gpxx:rpt lat="41.282711" lon="-87.468251">
            <gpxx:Subclass>000000000000FFFFFFFFFFFFFFFFFFFFFFFF</gpxx:Subclass>
          </gpxx:rpt>
        </gpxx:RoutePointExtension>
      </extensions>
    </rtept>
    <rtept lat="41.282711" lon="-87.468251">
      <time>2025-06-11T20:54:20.000Z</time>
      <name>Left on US-41N</name>
      <extensions>
        <trp:ViaPoint>
          <trp:DepartureTime>2025-06-11T21:54:20.000Z</trp:DepartureTime>
          <trp:StopDuration>PT1H</trp:StopDuration>
          <trp:ArrivalTime>2025-06-11T20:54:20.000Z</trp:ArrivalTime>
          <trp:CalculationMode>FasterTime</trp:CalculationMode>
          <trp:ElevationMode>Standard</trp:ElevationMode>
        </trp:ViaPoint>
        <gpxx:RoutePointExtension>
          <gpxx:Subclass>000000000000FFFFFFFFFFFFFFFFFFFFFFFF</gpxx:Subclass>
          <gpxx:rpt lat="41.282711" lon="-87.468251"></gpxx:rpt>
          <gpxx:rpt lat="41.281511" lon="-87.468227"></gpxx:rpt>
          <gpxx:rpt lat="41.281518" lon="-87.467936"></gpxx:rpt>
          <gpxx:rpt lat="41.282715" lon="-87.467956"></gpxx:rpt>
          <gpxx:rpt lat="41.286592" lon="-87.468101"></gpxx:rpt>
          <gpxx:rpt lat="41.287462" lon="-87.468130"></gpxx:rpt>
          <gpxx:rpt lat="41.288424" lon="-87.468169"></gpxx:rpt>
          <gpxx:rpt lat="41.289172" lon="-87.468197"></gpxx:rpt>
          <gpxx:rpt lat="41.290003" lon="-87.468228"></gpxx:rpt>
          <gpxx:rpt lat="41.290003" lon="-87.468228">
            <gpxx:Subclass>000000000000FFFFFFFFFFFFFFFFFFFFFFFF</gpxx:Subclass>
          </gpxx:rpt>
        </gpxx:RoutePointExtension>
      </extensions>
    </rtept>
    <rtept lat="41.290003" lon="-87.468228">
      <time>2025-06-11T21:55:18.000Z</time>
      <name>Right on West 181st Ave/IN-2</name>
      <extensions>
        <trp:ViaPoint>
          <trp:DepartureTime>2025-06-11T22:55:18.000Z</trp:DepartureTime>
          <trp:StopDuration>PT1H</trp:StopDuration>
          <trp:ArrivalTime>2025-06-11T21:55:18.000Z</trp:ArrivalTime>
          <trp:CalculationMode>FasterTime</trp:CalculationMode>
          <trp:ElevationMode>Standard</trp:ElevationMode>
        </trp:ViaPoint>
        <gpxx:RoutePointExtension>
          <gpxx:Subclass>000000000000FFFFFFFFFFFFFFFFFFFFFFFF</gpxx:Subclass>
          <gpxx:rpt lat="41.290003" lon="-87.468228"></gpxx:rpt>
          <gpxx:rpt lat="41.290003" lon="-87.467785"></gpxx:rpt>
          <gpxx:rpt lat="41.290003" lon="-87.467480"></gpxx:rpt>
          <gpxx:rpt lat="41.290003" lon="-87.467052"></gpxx:rpt>
          <gpxx:rpt lat="41.290002" lon="-87.466892"></gpxx:rpt>
          <gpxx:rpt lat="41.290001" lon="-87.464504"></gpxx:rpt>
          <gpxx:rpt lat="41.289999" lon="-87.460815"></gpxx:rpt>
          <gpxx:rpt lat="41.289999" lon="-87.460057"></gpxx:rpt>
          <gpxx:rpt lat="41.290006" lon="-87.458256"></gpxx:rpt>
          <gpxx:rpt lat="41.290013" lon="-87.456734"></gpxx:rpt>
          <gpxx:rpt lat="41.290014" lon="-87.454230"></gpxx:rpt>
          <gpxx:rpt lat="41.290013" lon="-87.453087"></gpxx:rpt>
          <gpxx:rpt lat="41.290007" lon="-87.449284"></gpxx:rpt>
          <gpxx:rpt lat="41.289987" lon="-87.446280"></gpxx:rpt>
          <gpxx:rpt lat="41.289974" lon="-87.444427"></gpxx:rpt>
          <gpxx:rpt lat="41.289962" lon="-87.439833"></gpxx:rpt>
          <gpxx:rpt lat="41.289957" lon="-87.439139"></gpxx:rpt>
          <gpxx:rpt lat="41.289939" lon="-87.436040"></gpxx:rpt>
          <gpxx:rpt lat="41.289944" lon="-87.435447"></gpxx:rpt>
          <gpxx:rpt lat="41.289925" lon="-87.433988"></gpxx:rpt>
          <gpxx:rpt lat="41.289911" lon="-87.432499"></gpxx:rpt>
          <gpxx:rpt lat="41.289901" lon="-87.431293"></gpxx:rpt>
          <gpxx:rpt lat="41.289903" lon="-87.429983"></gpxx:rpt>
          <gpxx:rpt lat="41.289895" lon="-87.426586"></gpxx:rpt>
          <gpxx:rpt lat="41.289893" lon="-87.425470"></gpxx:rpt>
          <gpxx:rpt lat="41.289913" lon="-87.425253"></gpxx:rpt>
          <gpxx:rpt lat="41.289960" lon="-87.425080"></gpxx:rpt>
          <gpxx:rpt lat="41.290088" lon="-87.424800"></gpxx:rpt>
          <gpxx:rpt lat="41.290499" lon="-87.423979"></gpxx:rpt>
          <gpxx:rpt lat="41.290875" lon="-87.423243"></gpxx:rpt>
          <gpxx:rpt lat="41.291201" lon="-87.422627"></gpxx:rpt>
          <gpxx:rpt lat="41.291304" lon="-87.422425"></gpxx:rpt>
          <gpxx:rpt lat="41.291316" lon="-87.422216"></gpxx:rpt>
          <gpxx:rpt lat="41.291348" lon="-87.421497"></gpxx:rpt>
          <gpxx:rpt lat="41.291374" lon="-87.421004"></gpxx:rpt>
          <gpxx:rpt lat="41.291394" lon="-87.420497"></gpxx:rpt>
          <gpxx:rpt lat="41.291428" lon="-87.419721"></gpxx:rpt>
          <gpxx:rpt lat="41.291449" lon="-87.419191"></gpxx:rpt>
          <gpxx:rpt lat="41.291526" lon="-87.417807"></gpxx:rpt>
          <gpxx:rpt lat="41.291564" lon="-87.416884"></gpxx:rpt>
          <gpxx:rpt lat="41.291589" lon="-87.415620"></gpxx:rpt>
          <gpxx:rpt lat="41.291559" lon="-87.415145"></gpxx:rpt>
          <gpxx:rpt lat="41.291360" lon="-87.413270"></gpxx:rpt>
          <gpxx:rpt lat="41.291277" lon="-87.412460"></gpxx:rpt>
          <gpxx:rpt lat="41.291106" lon="-87.410813"></gpxx:rpt>
          <gpxx:rpt lat="41.291060" lon="-87.410454"></gpxx:rpt>
          <gpxx:rpt lat="41.290998" lon="-87.410162"></gpxx:rpt>
          <gpxx:rpt lat="41.290933" lon="-87.409931"></gpxx:rpt>
          <gpxx:rpt lat="41.290846" lon="-87.409686"></gpxx:rpt>
          <gpxx:rpt lat="41.290719" lon="-87.409408"></gpxx:rpt>
          <gpxx:rpt lat="41.290560" lon="-87.409104"></gpxx:rpt>
          <gpxx:rpt lat="41.290230" lon="-87.408527"></gpxx:rpt>
          <gpxx:rpt lat="41.290082" lon="-87.408138"></gpxx:rpt>
          <gpxx:rpt lat="41.290022" lon="-87.407932"></gpxx:rpt>
          <gpxx:rpt lat="41.289939" lon="-87.407549"></gpxx:rpt>
          <gpxx:rpt lat="41.289887" lon="-87.407170"></gpxx:rpt>
          <gpxx:rpt lat="41.289883" lon="-87.406077"></gpxx:rpt>
          <gpxx:rpt lat="41.289925" lon="-87.401009"></gpxx:rpt>
          <gpxx:rpt lat="41.289921" lon="-87.400361"></gpxx:rpt>
          <gpxx:rpt lat="41.289913" lon="-87.399580"></gpxx:rpt>
          <gpxx:rpt lat="41.289903" lon="-87.398214"></gpxx:rpt>
          <gpxx:rpt lat="41.289884" lon="-87.396536"></gpxx:rpt>
          <gpxx:rpt lat="41.289871" lon="-87.395630"></gpxx:rpt>
          <gpxx:rpt lat="41.289854" lon="-87.393458"></gpxx:rpt>
          <gpxx:rpt lat="41.289818" lon="-87.391344"></gpxx:rpt>
          <gpxx:rpt lat="41.289809" lon="-87.390250"></gpxx:rpt>
          <gpxx:rpt lat="41.289775" lon="-87.387236"></gpxx:rpt>
          <gpxx:rpt lat="41.289762" lon="-87.385239"></gpxx:rpt>
          <gpxx:rpt lat="41.289755" lon="-87.383980"></gpxx:rpt>
          <gpxx:rpt lat="41.289745" lon="-87.382541"></gpxx:rpt>
          <gpxx:rpt lat="41.289695" lon="-87.377680"></gpxx:rpt>
          <gpxx:rpt lat="41.289668" lon="-87.374905"></gpxx:rpt>
          <gpxx:rpt lat="41.289640" lon="-87.371255"></gpxx:rpt>
          <gpxx:rpt lat="41.289616" lon="-87.368051"></gpxx:rpt>
          <gpxx:rpt lat="41.289586" lon="-87.365661"></gpxx:rpt>
          <gpxx:rpt lat="41.289584" lon="-87.364991"></gpxx:rpt>
          <gpxx:rpt lat="41.289580" lon="-87.364589"></gpxx:rpt>
          <gpxx:rpt lat="41.289537" lon="-87.359070"></gpxx:rpt>
          <gpxx:rpt lat="41.289511" lon="-87.353581"></gpxx:rpt>
          <gpxx:rpt lat="41.289510" lon="-87.353144"></gpxx:rpt>
          <gpxx:rpt lat="41.289503" lon="-87.352320"></gpxx:rpt>
          <gpxx:rpt lat="41.289499" lon="-87.351040"></gpxx:rpt>
          <gpxx:rpt lat="41.289472" lon="-87.345105"></gpxx:rpt>
          <gpxx:rpt lat="41.289470" lon="-87.343879"></gpxx:rpt>
          <gpxx:rpt lat="41.289464" lon="-87.342930"></gpxx:rpt>
          <gpxx:rpt lat="41.289466" lon="-87.341984"></gpxx:rpt>
          <gpxx:rpt lat="41.289464" lon="-87.337032"></gpxx:rpt>
          <gpxx:rpt lat="41.289466" lon="-87.335979"></gpxx:rpt>
          <gpxx:rpt lat="41.289458" lon="-87.332698"></gpxx:rpt>
          <gpxx:rpt lat="41.289446" lon="-87.331740"></gpxx:rpt>
          <gpxx:rpt lat="41.289441" lon="-87.328934"></gpxx:rpt>
          <gpxx:rpt lat="41.289379" lon="-87.324653"></gpxx:rpt>
          <gpxx:rpt lat="41.289373" lon="-87.323632"></gpxx:rpt>
          <gpxx:rpt lat="41.289345" lon="-87.319643"></gpxx:rpt>
          <gpxx:rpt lat="41.289300" lon="-87.315006"></gpxx:rpt>
          <gpxx:rpt lat="41.289295" lon="-87.312372"></gpxx:rpt>
          <gpxx:rpt lat="41.289344" lon="-87.308806"></gpxx:rpt>
          <gpxx:rpt lat="41.289362" lon="-87.307595"></gpxx:rpt>
          <gpxx:rpt lat="41.289384" lon="-87.303630"></gpxx:rpt>
          <gpxx:rpt lat="41.289385" lon="-87.301752"></gpxx:rpt>
          <gpxx:rpt lat="41.289376" lon="-87.300291"></gpxx:rpt>
          <gpxx:rpt lat="41.289370" lon="-87.299562"></gpxx:rpt>
          <gpxx:rpt lat="41.289360" lon="-87.298822"></gpxx:rpt>
          <gpxx:rpt lat="41.289364" lon="-87.297741"></gpxx:rpt>
          <gpxx:rpt lat="41.289359" lon="-87.295997"></gpxx:rpt>
          <gpxx:rpt lat="41.289347" lon="-87.292228"></gpxx:rpt>
          <gpxx:rpt lat="41.289353" lon="-87.292064"></gpxx:rpt>
          <gpxx:rpt lat="41.289367" lon="-87.291059"></gpxx:rpt>
          <gpxx:rpt lat="41.289335" lon="-87.287787"></gpxx:rpt>
          <gpxx:rpt lat="41.289342" lon="-87.287334"></gpxx:rpt>
          <gpxx:rpt lat="41.289329" lon="-87.283521"></gpxx:rpt>
          <gpxx:rpt lat="41.289330" lon="-87.282966"></gpxx:rpt>
          <gpxx:rpt lat="41.289344" lon="-87.280749"></gpxx:rpt>
          <gpxx:rpt lat="41.289354" lon="-87.277915"></gpxx:rpt>
          <gpxx:rpt lat="41.289364" lon="-87.276463"></gpxx:rpt>
          <gpxx:rpt lat="41.289367" lon="-87.274714"></gpxx:rpt>
          <gpxx:rpt lat="41.289369" lon="-87.271834"></gpxx:rpt>
          <gpxx:rpt lat="41.289366" lon="-87.268891"></gpxx:rpt>
          <gpxx:rpt lat="41.289368" lon="-87.264549"></gpxx:rpt>
          <gpxx:rpt lat="41.289366" lon="-87.263416"></gpxx:rpt>
          <gpxx:rpt lat="41.289369" lon="-87.262532"></gpxx:rpt>
          <gpxx:rpt lat="41.289364" lon="-87.262012"></gpxx:rpt>
          <gpxx:rpt lat="41.289370" lon="-87.261629"></gpxx:rpt>
          <gpxx:rpt lat="41.289364" lon="-87.258213"></gpxx:rpt>
          <gpxx:rpt lat="41.289364" lon="-87.257645"></gpxx:rpt>
          <gpxx:rpt lat="41.289359" lon="-87.248126"></gpxx:rpt>
          <gpxx:rpt lat="41.289354" lon="-87.245363"></gpxx:rpt>
          <gpxx:rpt lat="41.289353" lon="-87.243614"></gpxx:rpt>
          <gpxx:rpt lat="41.289351" lon="-87.242027"></gpxx:rpt>
          <gpxx:rpt lat="41.289344" lon="-87.238279"></gpxx:rpt>
          <gpxx:rpt lat="41.289269" lon="-87.228790"></gpxx:rpt>
          <gpxx:rpt lat="41.289302" lon="-87.226354"></gpxx:rpt>
          <gpxx:rpt lat="41.289306" lon="-87.225784"></gpxx:rpt>
          <gpxx:rpt lat="41.289355" lon="-87.222658"></gpxx:rpt>
          <gpxx:rpt lat="41.289404" lon="-87.219182"></gpxx:rpt>
          <gpxx:rpt lat="41.289422" lon="-87.216473"></gpxx:rpt>
          <gpxx:rpt lat="41.289423" lon="-87.215752"></gpxx:rpt>
          <gpxx:rpt lat="41.289420" lon="-87.214186"></gpxx:rpt>
          <gpxx:rpt lat="41.289406" lon="-87.211291"></gpxx:rpt>
          <gpxx:rpt lat="41.289401" lon="-87.210779"></gpxx:rpt>
          <gpxx:rpt lat="41.289397" lon="-87.209903"></gpxx:rpt>
          <gpxx:rpt lat="41.289388" lon="-87.208545"></gpxx:rpt>
          <gpxx:rpt lat="41.289359" lon="-87.206108"></gpxx:rpt>
          <gpxx:rpt lat="41.289326" lon="-87.203894"></gpxx:rpt>
          <gpxx:rpt lat="41.289315" lon="-87.203009"></gpxx:rpt>
          <gpxx:rpt lat="41.289306" lon="-87.202241"></gpxx:rpt>
          <gpxx:rpt lat="41.289294" lon="-87.201355"></gpxx:rpt>
          <gpxx:rpt lat="41.289290" lon="-87.201122"></gpxx:rpt>
          <gpxx:rpt lat="41.289281" lon="-87.199928"></gpxx:rpt>
          <gpxx:rpt lat="41.289279" lon="-87.199561"></gpxx:rpt>
          <gpxx:rpt lat="41.289279" lon="-87.199561">
            <gpxx:Subclass>000000000000FFFFFFFFFFFFFFFFFFFFFFFF</gpxx:Subclass>
          </gpxx:rpt>
        </gpxx:RoutePointExtension>
      </extensions>
    </rtept>
    <rtept lat="41.289279" lon="-87.199561">
      <time>2025-06-11T23:13:20.000Z</time>
      <name>Left on US-231 North</name>
      <extensions>
        <trp:ViaPoint>
          <trp:DepartureTime>2025-06-12T00:13:20.000Z</trp:DepartureTime>
          <trp:StopDuration>PT1H</trp:StopDuration>
          <trp:ArrivalTime>2025-06-11T23:13:20.000Z</trp:ArrivalTime>
          <trp:CalculationMode>FasterTime</trp:CalculationMode>
          <trp:ElevationMode>Standard</trp:ElevationMode>
        </trp:ViaPoint>
        <gpxx:RoutePointExtension>
          <gpxx:Subclass>000000000000FFFFFFFFFFFFFFFFFFFFFFFF</gpxx:Subclass>
          <gpxx:rpt lat="41.289279" lon="-87.199561"></gpxx:rpt>
          <gpxx:rpt lat="41.289278" lon="-87.199439"></gpxx:rpt>
          <gpxx:rpt lat="41.289638" lon="-87.199452"></gpxx:rpt>
          <gpxx:rpt lat="41.290318" lon="-87.199478"></gpxx:rpt>
          <gpxx:rpt lat="41.294463" lon="-87.199636"></gpxx:rpt>
          <gpxx:rpt lat="41.294819" lon="-87.199650"></gpxx:rpt>
          <gpxx:rpt lat="41.296421" lon="-87.199711"></gpxx:rpt>
          <gpxx:rpt lat="41.299828" lon="-87.199765"></gpxx:rpt>
          <gpxx:rpt lat="41.300128" lon="-87.199770"></gpxx:rpt>
          <gpxx:rpt lat="41.300937" lon="-87.199783"></gpxx:rpt>
          <gpxx:rpt lat="41.301430" lon="-87.199791"></gpxx:rpt>
          <gpxx:rpt lat="41.301592" lon="-87.199793"></gpxx:rpt>
          <gpxx:rpt lat="41.302776" lon="-87.199812"></gpxx:rpt>
          <gpxx:rpt lat="41.303935" lon="-87.199834"></gpxx:rpt>
          <gpxx:rpt lat="41.304331" lon="-87.199822"></gpxx:rpt>
          <gpxx:rpt lat="41.306737" lon="-87.199839"></gpxx:rpt>
          <gpxx:rpt lat="41.307047" lon="-87.199841"></gpxx:rpt>
          <gpxx:rpt lat="41.307414" lon="-87.199843"></gpxx:rpt>
          <gpxx:rpt lat="41.307930" lon="-87.199847"></gpxx:rpt>
          <gpxx:rpt lat="41.308386" lon="-87.199850"></gpxx:rpt>
          <gpxx:rpt lat="41.308569" lon="-87.199851"></gpxx:rpt>
          <gpxx:rpt lat="41.308638" lon="-87.199852"></gpxx:rpt>
          <gpxx:rpt lat="41.309990" lon="-87.199857"></gpxx:rpt>
          <gpxx:rpt lat="41.310407" lon="-87.199859"></gpxx:rpt>
          <gpxx:rpt lat="41.311339" lon="-87.199863"></gpxx:rpt>
          <gpxx:rpt lat="41.311794" lon="-87.199869"></gpxx:rpt>
          <gpxx:rpt lat="41.311947" lon="-87.199871"></gpxx:rpt>
          <gpxx:rpt lat="41.312788" lon="-87.199883"></gpxx:rpt>
          <gpxx:rpt lat="41.313342" lon="-87.199883"></gpxx:rpt>
          <gpxx:rpt lat="41.313416" lon="-87.199885"></gpxx:rpt>
          <gpxx:rpt lat="41.313488" lon="-87.199885"></gpxx:rpt>
          <gpxx:rpt lat="41.313666" lon="-87.199889"></gpxx:rpt>
          <gpxx:rpt lat="41.314148" lon="-87.199899"></gpxx:rpt>
          <gpxx:rpt lat="41.314252" lon="-87.199900"></gpxx:rpt>
          <gpxx:rpt lat="41.315078" lon="-87.199908"></gpxx:rpt>
          <gpxx:rpt lat="41.315330" lon="-87.199910"></gpxx:rpt>
          <gpxx:rpt lat="41.315489" lon="-87.199911"></gpxx:rpt>
          <gpxx:rpt lat="41.315707" lon="-87.199926"></gpxx:rpt>
          <gpxx:rpt lat="41.315835" lon="-87.199941"></gpxx:rpt>
          <gpxx:rpt lat="41.316273" lon="-87.199933"></gpxx:rpt>
          <gpxx:rpt lat="41.316477" lon="-87.199933"></gpxx:rpt>
          <gpxx:rpt lat="41.316768" lon="-87.199930"></gpxx:rpt>
          <gpxx:rpt lat="41.317181" lon="-87.199952"></gpxx:rpt>
          <gpxx:rpt lat="41.317641" lon="-87.199972"></gpxx:rpt>
          <gpxx:rpt lat="41.318187" lon="-87.199953"></gpxx:rpt>
          <gpxx:rpt lat="41.318627" lon="-87.199955"></gpxx:rpt>
          <gpxx:rpt lat="41.318627" lon="-87.199955">
            <gpxx:Subclass>000000000000FFFFFFFFFFFFFFFFFFFFFFFF</gpxx:Subclass>
          </gpxx:rpt>
        </gpxx:RoutePointExtension>
      </extensions>
    </rtept>
    <rtept lat="41.318627" lon="-87.199955">
      <time>2025-06-12T00:16:03.000Z</time>
      <name>Right on E Sigler St/IN-8 East</name>
      <extensions>
        <trp:ViaPoint>
          <trp:DepartureTime>2025-06-12T01:16:03.000Z</trp:DepartureTime>
          <trp:StopDuration>PT1H</trp:StopDuration>
          <trp:ArrivalTime>2025-06-12T00:16:03.000Z</trp:ArrivalTime>
          <trp:CalculationMode>FasterTime</trp:CalculationMode>
          <trp:ElevationMode>Standard</trp:ElevationMode>
        </trp:ViaPoint>
        <gpxx:RoutePointExtension>
          <gpxx:Subclass>000000000000FFFFFFFFFFFFFFFFFFFFFFFF</gpxx:Subclass>
          <gpxx:rpt lat="41.318627" lon="-87.199955"></gpxx:rpt>
          <gpxx:rpt lat="41.318612" lon="-87.199548"></gpxx:rpt>
          <gpxx:rpt lat="41.318606" lon="-87.199382"></gpxx:rpt>
          <gpxx:rpt lat="41.318573" lon="-87.198706"></gpxx:rpt>
          <gpxx:rpt lat="41.318561" lon="-87.198358"></gpxx:rpt>
          <gpxx:rpt lat="41.318542" lon="-87.197847"></gpxx:rpt>
          <gpxx:rpt lat="41.318522" lon="-87.197284"></gpxx:rpt>
          <gpxx:rpt lat="41.318498" lon="-87.196634"></gpxx:rpt>
          <gpxx:rpt lat="41.318485" lon="-87.196164"></gpxx:rpt>
          <gpxx:rpt lat="41.318466" lon="-87.195800"></gpxx:rpt>
          <gpxx:rpt lat="41.318403" lon="-87.193704"></gpxx:rpt>
          <gpxx:rpt lat="41.318352" lon="-87.191850"></gpxx:rpt>
          <gpxx:rpt lat="41.318304" lon="-87.190567"></gpxx:rpt>
          <gpxx:rpt lat="41.318267" lon="-87.189237"></gpxx:rpt>
          <gpxx:rpt lat="41.318237" lon="-87.188514"></gpxx:rpt>
          <gpxx:rpt lat="41.317989" lon="-87.182381"></gpxx:rpt>
          <gpxx:rpt lat="41.317982" lon="-87.182025"></gpxx:rpt>
          <gpxx:rpt lat="41.317953" lon="-87.180426"></gpxx:rpt>
          <gpxx:rpt lat="41.317958" lon="-87.179182"></gpxx:rpt>
          <gpxx:rpt lat="41.317960" lon="-87.178537"></gpxx:rpt>
          <gpxx:rpt lat="41.317961" lon="-87.177986"></gpxx:rpt>
          <gpxx:rpt lat="41.317966" lon="-87.176737"></gpxx:rpt>
          <gpxx:rpt lat="41.317967" lon="-87.176235"></gpxx:rpt>
          <gpxx:rpt lat="41.317977" lon="-87.174247"></gpxx:rpt>
          <gpxx:rpt lat="41.317990" lon="-87.171437"></gpxx:rpt>
          <gpxx:rpt lat="41.317986" lon="-87.166419"></gpxx:rpt>
          <gpxx:rpt lat="41.317998" lon="-87.165522"></gpxx:rpt>
          <gpxx:rpt lat="41.318002" lon="-87.163976"></gpxx:rpt>
          <gpxx:rpt lat="41.317995" lon="-87.161314"></gpxx:rpt>
          <gpxx:rpt lat="41.317999" lon="-87.159168"></gpxx:rpt>
          <gpxx:rpt lat="41.318000" lon="-87.158742"></gpxx:rpt>
          <gpxx:rpt lat="41.318006" lon="-87.155418"></gpxx:rpt>
          <gpxx:rpt lat="41.318012" lon="-87.151825"></gpxx:rpt>
          <gpxx:rpt lat="41.318014" lon="-87.151009"></gpxx:rpt>
          <gpxx:rpt lat="41.318040" lon="-87.142153"></gpxx:rpt>
          <gpxx:rpt lat="41.318050" lon="-87.139765"></gpxx:rpt>
          <gpxx:rpt lat="41.318089" lon="-87.137377"></gpxx:rpt>
          <gpxx:rpt lat="41.318170" lon="-87.132547"></gpxx:rpt>
          <gpxx:rpt lat="41.318270" lon="-87.126799"></gpxx:rpt>
          <gpxx:rpt lat="41.318276" lon="-87.126270"></gpxx:rpt>
          <gpxx:rpt lat="41.318282" lon="-87.126000"></gpxx:rpt>
          <gpxx:rpt lat="41.318297" lon="-87.125168"></gpxx:rpt>
          <gpxx:rpt lat="41.318302" lon="-87.124823"></gpxx:rpt>
          <gpxx:rpt lat="41.318311" lon="-87.124357"></gpxx:rpt>
          <gpxx:rpt lat="41.318328" lon="-87.123298"></gpxx:rpt>
          <gpxx:rpt lat="41.318336" lon="-87.122900"></gpxx:rpt>
          <gpxx:rpt lat="41.318343" lon="-87.122493"></gpxx:rpt>
          <gpxx:rpt lat="41.318368" lon="-87.120550"></gpxx:rpt>
          <gpxx:rpt lat="41.318369" lon="-87.119814"></gpxx:rpt>
          <gpxx:rpt lat="41.318368" lon="-87.119594"></gpxx:rpt>
          <gpxx:rpt lat="41.318371" lon="-87.118999"></gpxx:rpt>
          <gpxx:rpt lat="41.318372" lon="-87.118516"></gpxx:rpt>
          <gpxx:rpt lat="41.318367" lon="-87.116399"></gpxx:rpt>
          <gpxx:rpt lat="41.318364" lon="-87.114292"></gpxx:rpt>
          <gpxx:rpt lat="41.318362" lon="-87.113292"></gpxx:rpt>
          <gpxx:rpt lat="41.318357" lon="-87.110247"></gpxx:rpt>
          <gpxx:rpt lat="41.318356" lon="-87.108000"></gpxx:rpt>
          <gpxx:rpt lat="41.318351" lon="-87.107726"></gpxx:rpt>
          <gpxx:rpt lat="41.318347" lon="-87.105823"></gpxx:rpt>
          <gpxx:rpt lat="41.318349" lon="-87.103608"></gpxx:rpt>
          <gpxx:rpt lat="41.318382" lon="-87.098785"></gpxx:rpt>
          <gpxx:rpt lat="41.318390" lon="-87.097840"></gpxx:rpt>
          <gpxx:rpt lat="41.318444" lon="-87.091517"></gpxx:rpt>
          <gpxx:rpt lat="41.318460" lon="-87.089276"></gpxx:rpt>
          <gpxx:rpt lat="41.318503" lon="-87.082542"></gpxx:rpt>
          <gpxx:rpt lat="41.318507" lon="-87.082176"></gpxx:rpt>
          <gpxx:rpt lat="41.318550" lon="-87.078570"></gpxx:rpt>
          <gpxx:rpt lat="41.318556" lon="-87.077878"></gpxx:rpt>
          <gpxx:rpt lat="41.318562" lon="-87.077049"></gpxx:rpt>
          <gpxx:rpt lat="41.318590" lon="-87.074714"></gpxx:rpt>
          <gpxx:rpt lat="41.318594" lon="-87.072714"></gpxx:rpt>
          <gpxx:rpt lat="41.318596" lon="-87.072088"></gpxx:rpt>
          <gpxx:rpt lat="41.318578" lon="-87.069925"></gpxx:rpt>
          <gpxx:rpt lat="41.318556" lon="-87.064955"></gpxx:rpt>
          <gpxx:rpt lat="41.318538" lon="-87.059589"></gpxx:rpt>
          <gpxx:rpt lat="41.318535" lon="-87.058409"></gpxx:rpt>
          <gpxx:rpt lat="41.318500" lon="-87.054853"></gpxx:rpt>
          <gpxx:rpt lat="41.318450" lon="-87.050084"></gpxx:rpt>
          <gpxx:rpt lat="41.318436" lon="-87.048825"></gpxx:rpt>
          <gpxx:rpt lat="41.318390" lon="-87.044422"></gpxx:rpt>
          <gpxx:rpt lat="41.318332" lon="-87.038895"></gpxx:rpt>
          <gpxx:rpt lat="41.318322" lon="-87.038000"></gpxx:rpt>
          <gpxx:rpt lat="41.318321" lon="-87.037324"></gpxx:rpt>
          <gpxx:rpt lat="41.318317" lon="-87.035596"></gpxx:rpt>
          <gpxx:rpt lat="41.318320" lon="-87.035031"></gpxx:rpt>
          <gpxx:rpt lat="41.318327" lon="-87.031880"></gpxx:rpt>
          <gpxx:rpt lat="41.318325" lon="-87.030234"></gpxx:rpt>
          <gpxx:rpt lat="41.318331" lon="-87.028737"></gpxx:rpt>
          <gpxx:rpt lat="41.318331" lon="-87.026832"></gpxx:rpt>
          <gpxx:rpt lat="41.318330" lon="-87.026466"></gpxx:rpt>
          <gpxx:rpt lat="41.318330" lon="-87.025844"></gpxx:rpt>
          <gpxx:rpt lat="41.318310" lon="-87.024598"></gpxx:rpt>
          <gpxx:rpt lat="41.318299" lon="-87.023653"></gpxx:rpt>
          <gpxx:rpt lat="41.318293" lon="-87.023392"></gpxx:rpt>
          <gpxx:rpt lat="41.318274" lon="-87.022182"></gpxx:rpt>
          <gpxx:rpt lat="41.318268" lon="-87.021755"></gpxx:rpt>
          <gpxx:rpt lat="41.318252" lon="-87.019894"></gpxx:rpt>
          <gpxx:rpt lat="41.318235" lon="-87.018682"></gpxx:rpt>
          <gpxx:rpt lat="41.318194" lon="-87.015612"></gpxx:rpt>
          <gpxx:rpt lat="41.318174" lon="-87.014244"></gpxx:rpt>
          <gpxx:rpt lat="41.318139" lon="-87.011828"></gpxx:rpt>
          <gpxx:rpt lat="41.318118" lon="-87.010115"></gpxx:rpt>
          <gpxx:rpt lat="41.318107" lon="-87.009146"></gpxx:rpt>
          <gpxx:rpt lat="41.318099" lon="-87.008503"></gpxx:rpt>
          <gpxx:rpt lat="41.318077" lon="-87.006515"></gpxx:rpt>
          <gpxx:rpt lat="41.317992" lon="-86.999950"></gpxx:rpt>
          <gpxx:rpt lat="41.317868" lon="-86.989998"></gpxx:rpt>
          <gpxx:rpt lat="41.317863" lon="-86.989639"></gpxx:rpt>
          <gpxx:rpt lat="41.317827" lon="-86.982624"></gpxx:rpt>
          <gpxx:rpt lat="41.317823" lon="-86.981766"></gpxx:rpt>
          <gpxx:rpt lat="41.317819" lon="-86.980986"></gpxx:rpt>
          <gpxx:rpt lat="41.317802" lon="-86.977714"></gpxx:rpt>
          <gpxx:rpt lat="41.317797" lon="-86.975994"></gpxx:rpt>
          <gpxx:rpt lat="41.317792" lon="-86.974598"></gpxx:rpt>
          <gpxx:rpt lat="41.317788" lon="-86.973304"></gpxx:rpt>
          <gpxx:rpt lat="41.317785" lon="-86.972150"></gpxx:rpt>
          <gpxx:rpt lat="41.317775" lon="-86.971249"></gpxx:rpt>
          <gpxx:rpt lat="41.317773" lon="-86.971128"></gpxx:rpt>
          <gpxx:rpt lat="41.317740" lon="-86.968109"></gpxx:rpt>
          <gpxx:rpt lat="41.317739" lon="-86.967873"></gpxx:rpt>
          <gpxx:rpt lat="41.317729" lon="-86.963373"></gpxx:rpt>
          <gpxx:rpt lat="41.317728" lon="-86.963124"></gpxx:rpt>
          <gpxx:rpt lat="41.317614" lon="-86.949155"></gpxx:rpt>
          <gpxx:rpt lat="41.317546" lon="-86.937897"></gpxx:rpt>
          <gpxx:rpt lat="41.317502" lon="-86.930677"></gpxx:rpt>
          <gpxx:rpt lat="41.317504" lon="-86.930248"></gpxx:rpt>
          <gpxx:rpt lat="41.317508" lon="-86.929965"></gpxx:rpt>
          <gpxx:rpt lat="41.317456" lon="-86.925283"></gpxx:rpt>
          <gpxx:rpt lat="41.317463" lon="-86.924541"></gpxx:rpt>
          <gpxx:rpt lat="41.317441" lon="-86.921567"></gpxx:rpt>
          <gpxx:rpt lat="41.317368" lon="-86.911461"></gpxx:rpt>
          <gpxx:rpt lat="41.317363" lon="-86.910755"></gpxx:rpt>
          <gpxx:rpt lat="41.317323" lon="-86.906008"></gpxx:rpt>
          <gpxx:rpt lat="41.317315" lon="-86.900697"></gpxx:rpt>
          <gpxx:rpt lat="41.317311" lon="-86.899994"></gpxx:rpt>
          <gpxx:rpt lat="41.317309" lon="-86.899791"></gpxx:rpt>
          <gpxx:rpt lat="41.317307" lon="-86.899335"></gpxx:rpt>
          <gpxx:rpt lat="41.317291" lon="-86.896842"></gpxx:rpt>
          <gpxx:rpt lat="41.317290" lon="-86.896603"></gpxx:rpt>
          <gpxx:rpt lat="41.317296" lon="-86.896157"></gpxx:rpt>
          <gpxx:rpt lat="41.317303" lon="-86.895712"></gpxx:rpt>
          <gpxx:rpt lat="41.317310" lon="-86.894641"></gpxx:rpt>
          <gpxx:rpt lat="41.317313" lon="-86.894384"></gpxx:rpt>
          <gpxx:rpt lat="41.317317" lon="-86.893504"></gpxx:rpt>
          <gpxx:rpt lat="41.317316" lon="-86.893048"></gpxx:rpt>
          <gpxx:rpt lat="41.317315" lon="-86.893006"></gpxx:rpt>
          <gpxx:rpt lat="41.317310" lon="-86.892693"></gpxx:rpt>
          <gpxx:rpt lat="41.317309" lon="-86.892441"></gpxx:rpt>
          <gpxx:rpt lat="41.317311" lon="-86.892189"></gpxx:rpt>
          <gpxx:rpt lat="41.317318" lon="-86.891439"></gpxx:rpt>
          <gpxx:rpt lat="41.317318" lon="-86.891439">
            <gpxx:Subclass>000000000000FFFFFFFFFFFFFFFFFFFFFFFF</gpxx:Subclass>
          </gpxx:rpt>
        </gpxx:RoutePointExtension>
      </extensions>
    </rtept>
    <rtept lat="41.317318" lon="-86.891439">
      <time>2025-06-12T01:34:51.000Z</time>
      <name>Left on US-421 North</name>
      <extensions>
        <trp:ViaPoint>
          <trp:DepartureTime>2025-06-12T02:34:51.000Z</trp:DepartureTime>
          <trp:StopDuration>PT1H</trp:StopDuration>
          <trp:ArrivalTime>2025-06-12T01:34:51.000Z</trp:ArrivalTime>
          <trp:CalculationMode>FasterTime</trp:CalculationMode>
          <trp:ElevationMode>Standard</trp:ElevationMode>
        </trp:ViaPoint>
        <gpxx:RoutePointExtension>
          <gpxx:Subclass>000000000000FFFFFFFFFFFFFFFFFFFFFFFF</gpxx:Subclass>
          <gpxx:rpt lat="41.317318" lon="-86.891439"></gpxx:rpt>
          <gpxx:rpt lat="41.317319" lon="-86.891345"></gpxx:rpt>
          <gpxx:rpt lat="41.318115" lon="-86.891350"></gpxx:rpt>
          <gpxx:rpt lat="41.318182" lon="-86.891350"></gpxx:rpt>
          <gpxx:rpt lat="41.318706" lon="-86.891359"></gpxx:rpt>
          <gpxx:rpt lat="41.319027" lon="-86.891367"></gpxx:rpt>
          <gpxx:rpt lat="41.319505" lon="-86.891371"></gpxx:rpt>
          <gpxx:rpt lat="41.319839" lon="-86.891375"></gpxx:rpt>
          <gpxx:rpt lat="41.321580" lon="-86.891393"></gpxx:rpt>
          <gpxx:rpt lat="41.321820" lon="-86.891392"></gpxx:rpt>
          <gpxx:rpt lat="41.322652" lon="-86.891411"></gpxx:rpt>
          <gpxx:rpt lat="41.322758" lon="-86.891413"></gpxx:rpt>
          <gpxx:rpt lat="41.323435" lon="-86.891411"></gpxx:rpt>
          <gpxx:rpt lat="41.325392" lon="-86.891430"></gpxx:rpt>
          <gpxx:rpt lat="41.325613" lon="-86.891432"></gpxx:rpt>
          <gpxx:rpt lat="41.326075" lon="-86.891437"></gpxx:rpt>
          <gpxx:rpt lat="41.326434" lon="-86.891440"></gpxx:rpt>
          <gpxx:rpt lat="41.328331" lon="-86.891456"></gpxx:rpt>
          <gpxx:rpt lat="41.330168" lon="-86.891473"></gpxx:rpt>
          <gpxx:rpt lat="41.331860" lon="-86.891473"></gpxx:rpt>
          <gpxx:rpt lat="41.332267" lon="-86.891477"></gpxx:rpt>
          <gpxx:rpt lat="41.333374" lon="-86.891489"></gpxx:rpt>
          <gpxx:rpt lat="41.339082" lon="-86.891553"></gpxx:rpt>
          <gpxx:rpt lat="41.346657" lon="-86.891628"></gpxx:rpt>
          <gpxx:rpt lat="41.347596" lon="-86.891741"></gpxx:rpt>
          <gpxx:rpt lat="41.348812" lon="-86.891950"></gpxx:rpt>
          <gpxx:rpt lat="41.349247" lon="-86.892004"></gpxx:rpt>
          <gpxx:rpt lat="41.349686" lon="-86.892003"></gpxx:rpt>
          <gpxx:rpt lat="41.352215" lon="-86.891998"></gpxx:rpt>
          <gpxx:rpt lat="41.355190" lon="-86.891945"></gpxx:rpt>
          <gpxx:rpt lat="41.357175" lon="-86.891906"></gpxx:rpt>
          <gpxx:rpt lat="41.361151" lon="-86.891830"></gpxx:rpt>
          <gpxx:rpt lat="41.362846" lon="-86.891813"></gpxx:rpt>
          <gpxx:rpt lat="41.363557" lon="-86.891806"></gpxx:rpt>
          <gpxx:rpt lat="41.365123" lon="-86.891791"></gpxx:rpt>
          <gpxx:rpt lat="41.370996" lon="-86.891733"></gpxx:rpt>
          <gpxx:rpt lat="41.371947" lon="-86.891723"></gpxx:rpt>
          <gpxx:rpt lat="41.374066" lon="-86.891702"></gpxx:rpt>
          <gpxx:rpt lat="41.375622" lon="-86.891687"></gpxx:rpt>
          <gpxx:rpt lat="41.382840" lon="-86.891585"></gpxx:rpt>
          <gpxx:rpt lat="41.386601" lon="-86.891549"></gpxx:rpt>
          <gpxx:rpt lat="41.387476" lon="-86.891541"></gpxx:rpt>
          <gpxx:rpt lat="41.390080" lon="-86.891515"></gpxx:rpt>
          <gpxx:rpt lat="41.391670" lon="-86.891515"></gpxx:rpt>
          <gpxx:rpt lat="41.391925" lon="-86.891509"></gpxx:rpt>
          <gpxx:rpt lat="41.393388" lon="-86.891473"></gpxx:rpt>
          <gpxx:rpt lat="41.394948" lon="-86.891430"></gpxx:rpt>
          <gpxx:rpt lat="41.395481" lon="-86.891416"></gpxx:rpt>
          <gpxx:rpt lat="41.396749" lon="-86.891381"></gpxx:rpt>
          <gpxx:rpt lat="41.397401" lon="-86.891371"></gpxx:rpt>
          <gpxx:rpt lat="41.397623" lon="-86.891368"></gpxx:rpt>
          <gpxx:rpt lat="41.401321" lon="-86.891312"></gpxx:rpt>
          <gpxx:rpt lat="41.401727" lon="-86.891306"></gpxx:rpt>
          <gpxx:rpt lat="41.403456" lon="-86.891279"></gpxx:rpt>
          <gpxx:rpt lat="41.403650" lon="-86.891274"></gpxx:rpt>
          <gpxx:rpt lat="41.407721" lon="-86.891215"></gpxx:rpt>
          <gpxx:rpt lat="41.411837" lon="-86.891140"></gpxx:rpt>
          <gpxx:rpt lat="41.417759" lon="-86.891231"></gpxx:rpt>
          <gpxx:rpt lat="41.420792" lon="-86.891258"></gpxx:rpt>
          <gpxx:rpt lat="41.421656" lon="-86.891255"></gpxx:rpt>
          <gpxx:rpt lat="41.423450" lon="-86.891248"></gpxx:rpt>
          <gpxx:rpt lat="41.423757" lon="-86.891247"></gpxx:rpt>
          <gpxx:rpt lat="41.424607" lon="-86.891237"></gpxx:rpt>
          <gpxx:rpt lat="41.425619" lon="-86.891224"></gpxx:rpt>
          <gpxx:rpt lat="41.428009" lon="-86.891231"></gpxx:rpt>
          <gpxx:rpt lat="41.428840" lon="-86.891256"></gpxx:rpt>
          <gpxx:rpt lat="41.432475" lon="-86.891225"></gpxx:rpt>
          <gpxx:rpt lat="41.433517" lon="-86.891216"></gpxx:rpt>
          <gpxx:rpt lat="41.433813" lon="-86.891214"></gpxx:rpt>
          <gpxx:rpt lat="41.433813" lon="-86.891214">
            <gpxx:Subclass>000000000000FFFFFFFFFFFFFFFFFFFFFFFF</gpxx:Subclass>
          </gpxx:rpt>
        </gpxx:RoutePointExtension>
      </extensions>
    </rtept>
    <rtept lat="41.433813" lon="-86.891214">
      <time>2025-06-12T02:44:17.000Z</time>
      <name>Right on Lincoln Highway / US-30E</name>
      <extensions>
        <trp:ViaPoint>
          <trp:DepartureTime>2025-06-12T03:44:17.000Z</trp:DepartureTime>
          <trp:StopDuration>PT1H</trp:StopDuration>
          <trp:ArrivalTime>2025-06-12T02:44:17.000Z</trp:ArrivalTime>
          <trp:CalculationMode>FasterTime</trp:CalculationMode>
          <trp:ElevationMode>Standard</trp:ElevationMode>
        </trp:ViaPoint>
        <gpxx:RoutePointExtension>
          <gpxx:Subclass>000000000000FFFFFFFFFFFFFFFFFFFFFFFF</gpxx:Subclass>
          <gpxx:rpt lat="41.433813" lon="-86.891214"></gpxx:rpt>
          <gpxx:rpt lat="41.433930" lon="-86.891213"></gpxx:rpt>
          <gpxx:rpt lat="41.434038" lon="-86.891215"></gpxx:rpt>
          <gpxx:rpt lat="41.434114" lon="-86.891215"></gpxx:rpt>
          <gpxx:rpt lat="41.434489" lon="-86.891227"></gpxx:rpt>
          <gpxx:rpt lat="41.434547" lon="-86.891228"></gpxx:rpt>
          <gpxx:rpt lat="41.435563" lon="-86.891251"></gpxx:rpt>
          <gpxx:rpt lat="41.436433" lon="-86.891305"></gpxx:rpt>
          <gpxx:rpt lat="41.462976" lon="-86.892080"></gpxx:rpt>
          <gpxx:rpt lat="41.517216" lon="-86.894066"></gpxx:rpt>
          <gpxx:rpt lat="41.518407" lon="-86.892492"></gpxx:rpt>
          <gpxx:rpt lat="41.517653" lon="-86.824907"></gpxx:rpt>
          <gpxx:rpt lat="41.515846" lon="-86.814155"></gpxx:rpt>
          <gpxx:rpt lat="41.515730" lon="-86.808011"></gpxx:rpt>
          <gpxx:rpt lat="41.517586" lon="-86.786451"></gpxx:rpt>
          <gpxx:rpt lat="41.517479" lon="-86.721313"></gpxx:rpt>
          <gpxx:rpt lat="41.517329" lon="-86.701173"></gpxx:rpt>
          <gpxx:rpt lat="41.514625" lon="-86.694305"></gpxx:rpt>
          <gpxx:rpt lat="41.511438" lon="-86.692948"></gpxx:rpt>
          <gpxx:rpt lat="41.501182" lon="-86.692887"></gpxx:rpt>
          <gpxx:rpt lat="41.499896" lon="-86.692433"></gpxx:rpt>
          <gpxx:rpt lat="41.477816" lon="-86.677901"></gpxx:rpt>
          <gpxx:rpt lat="41.476413" lon="-86.674171"></gpxx:rpt>
          <gpxx:rpt lat="41.476243" lon="-86.642382"></gpxx:rpt>
          <gpxx:rpt lat="41.477589" lon="-86.630349"></gpxx:rpt>
          <gpxx:rpt lat="41.477446" lon="-86.602918"></gpxx:rpt>
          <gpxx:rpt lat="41.476167" lon="-86.594766"></gpxx:rpt>
          <gpxx:rpt lat="41.476357" lon="-86.582206"></gpxx:rpt>
          <gpxx:rpt lat="41.476326" lon="-86.547447"></gpxx:rpt>
          <gpxx:rpt lat="41.476156" lon="-86.543958"></gpxx:rpt>
          <gpxx:rpt lat="41.472930" lon="-86.515535"></gpxx:rpt>
          <gpxx:rpt lat="41.469628" lon="-86.508328"></gpxx:rpt>
          <gpxx:rpt lat="41.469239" lon="-86.506002"></gpxx:rpt>
          <gpxx:rpt lat="41.469125" lon="-86.486541"></gpxx:rpt>
          <gpxx:rpt lat="41.462570" lon="-86.477162"></gpxx:rpt>
          <gpxx:rpt lat="41.457940" lon="-86.471980"></gpxx:rpt>
          <gpxx:rpt lat="41.451303" lon="-86.463326"></gpxx:rpt>
          <gpxx:rpt lat="41.451317" lon="-86.446759"></gpxx:rpt>
          <gpxx:rpt lat="41.450471" lon="-86.443385"></gpxx:rpt>
          <gpxx:rpt lat="41.448267" lon="-86.439971"></gpxx:rpt>
          <gpxx:rpt lat="41.447790" lon="-86.437091"></gpxx:rpt>
          <gpxx:rpt lat="41.449230" lon="-86.316117"></gpxx:rpt>
          <gpxx:rpt lat="41.449830" lon="-86.306762"></gpxx:rpt>
          <gpxx:rpt lat="41.449622" lon="-86.270400"></gpxx:rpt>
          <gpxx:rpt lat="41.449895" lon="-86.231376"></gpxx:rpt>
          <gpxx:rpt lat="41.449707" lon="-86.209559"></gpxx:rpt>
          <gpxx:rpt lat="41.450865" lon="-86.205748"></gpxx:rpt>
          <gpxx:rpt lat="41.452883" lon="-86.202990"></gpxx:rpt>
          <gpxx:rpt lat="41.457824" lon="-86.198458"></gpxx:rpt>
          <gpxx:rpt lat="41.459625" lon="-86.195500"></gpxx:rpt>
          <gpxx:rpt lat="41.460595" lon="-86.190580"></gpxx:rpt>
          <gpxx:rpt lat="41.460724" lon="-86.147793"></gpxx:rpt>
          <gpxx:rpt lat="41.459837" lon="-86.141924"></gpxx:rpt>
          <gpxx:rpt lat="41.454867" lon="-86.132700"></gpxx:rpt>
          <gpxx:rpt lat="41.453823" lon="-86.128055"></gpxx:rpt>
          <gpxx:rpt lat="41.453654" lon="-86.099227"></gpxx:rpt>
          <gpxx:rpt lat="41.452524" lon="-86.095625"></gpxx:rpt>
          <gpxx:rpt lat="41.447916" lon="-86.086912"></gpxx:rpt>
          <gpxx:rpt lat="41.447333" lon="-86.084344"></gpxx:rpt>
          <gpxx:rpt lat="41.442900" lon="-86.025151"></gpxx:rpt>
          <gpxx:rpt lat="41.442639" lon="-85.999365"></gpxx:rpt>
          <gpxx:rpt lat="41.442992" lon="-85.927381"></gpxx:rpt>
          <gpxx:rpt lat="41.446199" lon="-85.917786"></gpxx:rpt>
          <gpxx:rpt lat="41.446581" lon="-85.907725"></gpxx:rpt>
          <gpxx:rpt lat="41.450145" lon="-85.897137"></gpxx:rpt>
          <gpxx:rpt lat="41.449917" lon="-85.884187"></gpxx:rpt>
          <gpxx:rpt lat="41.449920" lon="-85.864757"></gpxx:rpt>
          <gpxx:rpt lat="41.449620" lon="-85.851489"></gpxx:rpt>
          <gpxx:rpt lat="41.449445" lon="-85.828351"></gpxx:rpt>
          <gpxx:rpt lat="41.449914" lon="-85.806861"></gpxx:rpt>
          <gpxx:rpt lat="41.449927" lon="-85.784057"></gpxx:rpt>
          <gpxx:rpt lat="41.450537" lon="-85.751915"></gpxx:rpt>
          <gpxx:rpt lat="41.450430" lon="-85.750505"></gpxx:rpt>
          <gpxx:rpt lat="41.435999" lon="-85.749827"></gpxx:rpt>
          <gpxx:rpt lat="41.433943" lon="-85.750442"></gpxx:rpt>
          <gpxx:rpt lat="41.430983" lon="-85.753947"></gpxx:rpt>
          <gpxx:rpt lat="41.429205" lon="-85.754002"></gpxx:rpt>
          <gpxx:rpt lat="41.422139" lon="-85.747703"></gpxx:rpt>
          <gpxx:rpt lat="41.416637" lon="-85.747372"></gpxx:rpt>
          <gpxx:rpt lat="41.405167" lon="-85.745034"></gpxx:rpt>
          <gpxx:rpt lat="41.403043" lon="-85.743815"></gpxx:rpt>
          <gpxx:rpt lat="41.400836" lon="-85.737904"></gpxx:rpt>
          <gpxx:rpt lat="41.400974" lon="-85.725132"></gpxx:rpt>
          <gpxx:rpt lat="41.400572" lon="-85.722450"></gpxx:rpt>
          <gpxx:rpt lat="41.393483" lon="-85.709615"></gpxx:rpt>
          <gpxx:rpt lat="41.388949" lon="-85.703122"></gpxx:rpt>
          <gpxx:rpt lat="41.386351" lon="-85.701802"></gpxx:rpt>
          <gpxx:rpt lat="41.340345" lon="-85.701094"></gpxx:rpt>
          <gpxx:rpt lat="41.332412" lon="-85.698385"></gpxx:rpt>
          <gpxx:rpt lat="41.323006" lon="-85.697817"></gpxx:rpt>
          <gpxx:rpt lat="41.316470" lon="-85.692390"></gpxx:rpt>
          <gpxx:rpt lat="41.313175" lon="-85.691151"></gpxx:rpt>
          <gpxx:rpt lat="41.297336" lon="-85.690691"></gpxx:rpt>
          <gpxx:rpt lat="41.295466" lon="-85.690222"></gpxx:rpt>
          <gpxx:rpt lat="41.290986" lon="-85.686310"></gpxx:rpt>
          <gpxx:rpt lat="41.286800" lon="-85.685960"></gpxx:rpt>
          <gpxx:rpt lat="41.270395" lon="-85.698939"></gpxx:rpt>
          <gpxx:rpt lat="41.268224" lon="-85.699408"></gpxx:rpt>
          <gpxx:rpt lat="41.236146" lon="-85.699695"></gpxx:rpt>
          <gpxx:rpt lat="41.236340" lon="-85.680310"></gpxx:rpt>
          <gpxx:rpt lat="41.236346" lon="-85.655829"></gpxx:rpt>
          <gpxx:rpt lat="41.235152" lon="-85.652210"></gpxx:rpt>
          <gpxx:rpt lat="41.223641" lon="-85.637025"></gpxx:rpt>
          <gpxx:rpt lat="41.221708" lon="-85.630710"></gpxx:rpt>
          <gpxx:rpt lat="41.221577" lon="-85.615401"></gpxx:rpt>
          <gpxx:rpt lat="41.220982" lon="-85.587750"></gpxx:rpt>
          <gpxx:rpt lat="41.219436" lon="-85.583450"></gpxx:rpt>
          <gpxx:rpt lat="41.213927" lon="-85.577210"></gpxx:rpt>
          <gpxx:rpt lat="41.209970" lon="-85.568956"></gpxx:rpt>
          <gpxx:rpt lat="41.206858" lon="-85.558290"></gpxx:rpt>
          <gpxx:rpt lat="41.201537" lon="-85.542920"></gpxx:rpt>
          <gpxx:rpt lat="41.198325" lon="-85.540132"></gpxx:rpt>
          <gpxx:rpt lat="41.195681" lon="-85.539319"></gpxx:rpt>
          <gpxx:rpt lat="41.186254" lon="-85.539357"></gpxx:rpt>
          <gpxx:rpt lat="41.183496" lon="-85.537941"></gpxx:rpt>
          <gpxx:rpt lat="41.174771" lon="-85.522748"></gpxx:rpt>
          <gpxx:rpt lat="41.172658" lon="-85.514536"></gpxx:rpt>
          <gpxx:rpt lat="41.166324" lon="-85.506932"></gpxx:rpt>
          <gpxx:rpt lat="41.158259" lon="-85.501628"></gpxx:rpt>
          <gpxx:rpt lat="41.156984" lon="-85.494894"></gpxx:rpt>
          <gpxx:rpt lat="41.157040" lon="-85.488389"></gpxx:rpt>
          <gpxx:rpt lat="41.153205" lon="-85.488313"></gpxx:rpt>
          <gpxx:rpt lat="41.150240" lon="-85.487145"></gpxx:rpt>
          <gpxx:rpt lat="41.146757" lon="-85.473748"></gpxx:rpt>
          <gpxx:rpt lat="41.140081" lon="-85.446584"></gpxx:rpt>
          <gpxx:rpt lat="41.140150" lon="-85.435886"></gpxx:rpt>
          <gpxx:rpt lat="41.141446" lon="-85.434556"></gpxx:rpt>
          <gpxx:rpt lat="41.140129" lon="-85.428934"></gpxx:rpt>
          <gpxx:rpt lat="41.139888" lon="-85.398843"></gpxx:rpt>
          <gpxx:rpt lat="41.133114" lon="-85.372717"></gpxx:rpt>
          <gpxx:rpt lat="41.133708" lon="-85.337763"></gpxx:rpt>
          <gpxx:rpt lat="41.132960" lon="-85.332339"></gpxx:rpt>
          <gpxx:rpt lat="41.132732" lon="-85.319677"></gpxx:rpt>
          <gpxx:rpt lat="41.133052" lon="-85.302340"></gpxx:rpt>
          <gpxx:rpt lat="41.132968" lon="-85.276577"></gpxx:rpt>
          <gpxx:rpt lat="41.132657" lon="-85.255569"></gpxx:rpt>
          <gpxx:rpt lat="41.133148" lon="-85.245473"></gpxx:rpt>
          <gpxx:rpt lat="41.133062" lon="-85.228382"></gpxx:rpt>
          <gpxx:rpt lat="41.132244" lon="-85.222462"></gpxx:rpt>
          <gpxx:rpt lat="41.132157" lon="-85.211525"></gpxx:rpt>
          <gpxx:rpt lat="41.125024" lon="-85.211499"></gpxx:rpt>
          <gpxx:rpt lat="41.126593" lon="-85.197649"></gpxx:rpt>
          <gpxx:rpt lat="41.125752" lon="-85.192841"></gpxx:rpt>
          <gpxx:rpt lat="41.123504" lon="-85.188496"></gpxx:rpt>
          <gpxx:rpt lat="41.120682" lon="-85.185151"></gpxx:rpt>
          <gpxx:rpt lat="41.119518" lon="-85.183721"></gpxx:rpt>
          <gpxx:rpt lat="41.117961" lon="-85.181870"></gpxx:rpt>
          <gpxx:rpt lat="41.117755" lon="-85.181635"></gpxx:rpt>
          <gpxx:rpt lat="41.117744" lon="-85.181624"></gpxx:rpt>
          <gpxx:rpt lat="41.117706" lon="-85.181577"></gpxx:rpt>
          <gpxx:rpt lat="41.117706" lon="-85.181577">
            <gpxx:Subclass>000000000000FFFFFFFFFFFFFFFFFFFFFFFF</gpxx:Subclass>
          </gpxx:rpt>
        </gpxx:RoutePointExtension>
      </extensions>
    </rtept>
    <rtept lat="41.117706" lon="-85.181577">
      <time>2025-06-12T06:09:23.000Z</time>
      <name>Left on West Coliseum Blvd</name>
      <extensions>
        <trp:ViaPoint>
          <trp:ArrivalTime>2025-06-12T06:09:23.000Z</trp:ArrivalTime>
          <trp:CalculationMode>FasterTime</trp:CalculationMode>
          <trp:ElevationMode>Standard</trp:ElevationMode>
        </trp:ViaPoint>
        <gpxx:RoutePointExtension>
          <gpxx:Subclass>000000000000FFFFFFFFFFFFFFFFFFFFFFFF</gpxx:Subclass>
        </gpxx:RoutePointExtension>
      </extensions>
    </rtept>
  </rte>
  <rte>
    <name>Day 2 - Wed, Jun 11, 2025</name>
    <extensions>
      <gpxx:RouteExtension>
        <gpxx:IsAutoNamed>false</gpxx:IsAutoNamed>
        <gpxx:DisplayColor>Blue</gpxx:DisplayColor>
      </gpxx:RouteExtension>
      <trp:Trip>
        <trp:TransportationMode>Automotive</trp:TransportationMode>
      </trp:Trip>
      <tmd:TripMetaData>
        <tmd:TripName>EV PT2025 - Day 3 | Allen County War Memorial Coliseum</tmd:TripName>
        <tmd:Date>2025-06-12T07:09:23.000Z</tmd:Date>
        <tmd:DayNumber>2</tmd:DayNumber>
      </tmd:TripMetaData>
    </extensions>
    <rtept lat="41.117706" lon="-85.181577">
      <time>2025-06-12T06:09:23.000Z</time>
      <name>Left on West Coliseum Blvd</name>
      <extensions>
        <trp:ViaPoint>
          <trp:DepartureTime>2025-06-12T07:09:23.000Z</trp:DepartureTime>
          <trp:CalculationMode>FasterTime</trp:CalculationMode>
          <trp:ElevationMode>Standard</trp:ElevationMode>
        </trp:ViaPoint>
        <gpxx:RoutePointExtension>
          <gpxx:Subclass>000000000000FFFFFFFFFFFFFFFFFFFFFFFF</gpxx:Subclass>
          <gpxx:rpt lat="41.117706" lon="-85.181577"></gpxx:rpt>
          <gpxx:rpt lat="41.117626" lon="-85.181476"></gpxx:rpt>
          <gpxx:rpt lat="41.117515" lon="-85.181348"></gpxx:rpt>
          <gpxx:rpt lat="41.117490" lon="-85.181102"></gpxx:rpt>
          <gpxx:rpt lat="41.117489" lon="-85.180874"></gpxx:rpt>
          <gpxx:rpt lat="41.117487" lon="-85.180301"></gpxx:rpt>
          <gpxx:rpt lat="41.117482" lon="-85.179951"></gpxx:rpt>
          <gpxx:rpt lat="41.117485" lon="-85.179696"></gpxx:rpt>
          <gpxx:rpt lat="41.117491" lon="-85.179147"></gpxx:rpt>
          <gpxx:rpt lat="41.117503" lon="-85.178525"></gpxx:rpt>
          <gpxx:rpt lat="41.117520" lon="-85.177795"></gpxx:rpt>
          <gpxx:rpt lat="41.117553" lon="-85.175755"></gpxx:rpt>
          <gpxx:rpt lat="41.117561" lon="-85.175204"></gpxx:rpt>
          <gpxx:rpt lat="41.117568" lon="-85.174685"></gpxx:rpt>
          <gpxx:rpt lat="41.117573" lon="-85.174440"></gpxx:rpt>
          <gpxx:rpt lat="41.117578" lon="-85.174211"></gpxx:rpt>
          <gpxx:rpt lat="41.117589" lon="-85.173678"></gpxx:rpt>
          <gpxx:rpt lat="41.117618" lon="-85.172669"></gpxx:rpt>
          <gpxx:rpt lat="41.117634" lon="-85.172141"></gpxx:rpt>
          <gpxx:rpt lat="41.117644" lon="-85.171815"></gpxx:rpt>
          <gpxx:rpt lat="41.117698" lon="-85.171307"></gpxx:rpt>
          <gpxx:rpt lat="41.117700" lon="-85.171289"></gpxx:rpt>
          <gpxx:rpt lat="41.117709" lon="-85.170355"></gpxx:rpt>
          <gpxx:rpt lat="41.117710" lon="-85.170201"></gpxx:rpt>
          <gpxx:rpt lat="41.117715" lon="-85.169686"></gpxx:rpt>
          <gpxx:rpt lat="41.117716" lon="-85.169653"></gpxx:rpt>
          <gpxx:rpt lat="41.117720" lon="-85.169219"></gpxx:rpt>
          <gpxx:rpt lat="41.117720" lon="-85.169154"></gpxx:rpt>
          <gpxx:rpt lat="41.117725" lon="-85.168701"></gpxx:rpt>
          <gpxx:rpt lat="41.117729" lon="-85.168345"></gpxx:rpt>
          <gpxx:rpt 